{
"type": "FeatureCollection",
"name": "simce_geo_conce",
"crs": { "type": "name", "properties": { "name": "urn:ogc:def:crs:OGC:1.3:CRS84" } },
"features": [
{ "type": "Feature", "properties": { "RBD": 4531.0, "DEPENDENCI": "MUNICIPAL", "NOMBRE_RBD": "COLEGIO MARINA DE CHILE", "prom_lect4": 264.0, "prom_mate4": 255.0 }, "geometry": { "type": "Point", "coordinates": [ -73.07382965, -36.80922699 ] } },
{ "type": "Feature", "properties": { "RBD": 4548.0, "DEPENDENCI": "MUNICIPAL", "NOMBRE_RBD": "COLEGIO BIOBÍO", "prom_lect4": 252.0, "prom_mate4": 249.0 }, "geometry": { "type": "Point", "coordinates": [ -73.04802704, -36.83084106 ] } },
{ "type": "Feature", "properties": { "RBD": 4563.0, "DEPENDENCI": "MUNICIPAL", "NOMBRE_RBD": "LICEO REPÚBLICA DEL ECUADOR", "prom_lect4": 252.0, "prom_mate4": 260.0 }, "geometry": { "type": "Point", "coordinates": [ -73.05112457, -36.84693146 ] } },
{ "type": "Feature", "properties": { "RBD": 4564.0, "DEPENDENCI": "MUNICIPAL", "NOMBRE_RBD": "COLEGIO BICENTENARIO REPÚBLICA DEL BRASIL", "prom_lect4": 274.0, "prom_mate4": 265.0 }, "geometry": { "type": "Point", "coordinates": [ -73.04971313, -36.83221054 ] } },
{ "type": "Feature", "properties": { "RBD": 4565.0, "DEPENDENCI": "MUNICIPAL", "NOMBRE_RBD": "LICEO DOMINGO SANTA MARÍA", "prom_lect4": 260.0, "prom_mate4": 253.0 }, "geometry": { "type": "Point", "coordinates": [ -73.03351593, -36.81276703 ] } },
{ "type": "Feature", "properties": { "RBD": 4569.0, "DEPENDENCI": "MUNICIPAL", "NOMBRE_RBD": "ESCUELA DIEGO PORTALES PALAZUELOS", "prom_lect4": 262.0, "prom_mate4": 275.0 }, "geometry": { "type": "Point", "coordinates": [ -73.03591919, -36.80121613 ] } },
{ "type": "Feature", "properties": { "RBD": 4571.0, "DEPENDENCI": "MUNICIPAL", "NOMBRE_RBD": "LICEO JOSE HIPOLITO SALAS Y TORO", "prom_lect4": 258.0, "prom_mate4": 241.0 }, "geometry": { "type": "Point", "coordinates": [ -73.02780151, -36.92071915 ] } },
{ "type": "Feature", "properties": { "RBD": 4572.0, "DEPENDENCI": "MUNICIPAL", "NOMBRE_RBD": "COLEGIO GRAN BRETAÑA", "prom_lect4": 263.0, "prom_mate4": 233.0 }, "geometry": { "type": "Point", "coordinates": [ -73.05280304, -36.82038116 ] } },
{ "type": "Feature", "properties": { "RBD": 4574.0, "DEPENDENCI": "MUNICIPAL", "NOMBRE_RBD": "COLEGIO ESPAÑA", "prom_lect4": 286.0, "prom_mate4": 273.0 }, "geometry": { "type": "Point", "coordinates": [ -73.03651428, -36.82434845 ] } },
{ "type": "Feature", "properties": { "RBD": 4575.0, "DEPENDENCI": "MUNICIPAL", "NOMBRE_RBD": "ESCUELA BASICA JOHN F. KENNEDY", "prom_lect4": 263.0, "prom_mate4": 237.0 }, "geometry": { "type": "Point", "coordinates": [ -73.02565002, -36.91292953 ] } },
{ "type": "Feature", "properties": { "RBD": 4576.0, "DEPENDENCI": "MUNICIPAL", "NOMBRE_RBD": "ESCUELA BELGICA", "prom_lect4": 283.0, "prom_mate4": 270.0 }, "geometry": { "type": "Point", "coordinates": [ -73.02828979, -36.93042374 ] } },
{ "type": "Feature", "properties": { "RBD": 4577.0, "DEPENDENCI": "MUNICIPAL", "NOMBRE_RBD": "LICEO REPÚBLICA DE ISRAEL", "prom_lect4": 254.0, "prom_mate4": 250.0 }, "geometry": { "type": "Point", "coordinates": [ -73.04146576, -36.81623459 ] } },
{ "type": "Feature", "properties": { "RBD": 4578.0, "DEPENDENCI": "MUNICIPAL", "NOMBRE_RBD": "ESCUELA DARIO SALAS MARCHANT", "prom_lect4": 256.0, "prom_mate4": 235.0 }, "geometry": { "type": "Point", "coordinates": [ -73.10440826, -36.84108353 ] } },
{ "type": "Feature", "properties": { "RBD": 4579.0, "DEPENDENCI": "MUNICIPAL", "NOMBRE_RBD": "ESCUELA BASICA RENE LOUVEL BERT", "prom_lect4": 253.0, "prom_mate4": 228.0 }, "geometry": { "type": "Point", "coordinates": [ -73.01472473, -36.82004166 ] } },
{ "type": "Feature", "properties": { "RBD": 4581.0, "DEPENDENCI": "MUNICIPAL", "NOMBRE_RBD": "ESCUELA OSCAR CASTRO ZUNIGA", "prom_lect4": 243.0, "prom_mate4": 245.0 }, "geometry": { "type": "Point", "coordinates": [ -73.06303406, -36.82840347 ] } },
{ "type": "Feature", "properties": { "RBD": 4582.0, "DEPENDENCI": "MUNICIPAL", "NOMBRE_RBD": "ESCUELA ESTHER HUNNEUS DE CLARO", "prom_lect4": 227.0, "prom_mate4": 240.0 }, "geometry": { "type": "Point", "coordinates": [ -73.07588196, -36.81161499 ] } },
{ "type": "Feature", "properties": { "RBD": 4584.0, "DEPENDENCI": "MUNICIPAL", "NOMBRE_RBD": "ESCUELA REPUBLICA FEDERAL ALEMANA", "prom_lect4": 255.0, "prom_mate4": 256.0 }, "geometry": { "type": "Point", "coordinates": [ -73.02135468, -36.92214203 ] } },
{ "type": "Feature", "properties": { "RBD": 4585.0, "DEPENDENCI": "MUNICIPAL", "NOMBRE_RBD": "LICEO REBECA MATTE BELLO", "prom_lect4": 268.0, "prom_mate4": 270.0 }, "geometry": { "type": "Point", "coordinates": [ -73.05528259, -36.81381607 ] } },
{ "type": "Feature", "properties": { "RBD": 4586.0, "DEPENDENCI": "MUNICIPAL", "NOMBRE_RBD": "ESCUELA BASICA MANQUIMAVIDA", "prom_lect4": 238.0, "prom_mate4": 232.0 }, "geometry": { "type": "Point", "coordinates": [ -73.01663208, -36.94004059 ] } },
{ "type": "Feature", "properties": { "RBD": 4588.0, "DEPENDENCI": "MUNICIPAL", "NOMBRE_RBD": "COLEGIO JUAN GREGORIO LAS HERAS", "prom_lect4": 274.0, "prom_mate4": 253.0 }, "geometry": { "type": "Point", "coordinates": [ -73.04623413, -36.81969833 ] } },
{ "type": "Feature", "properties": { "RBD": 4589.0, "DEPENDENCI": "MUNICIPAL", "NOMBRE_RBD": "LICEO LUCERO GONZALEZ", "prom_lect4": 257.0, "prom_mate4": 209.0 }, "geometry": { "type": "Point", "coordinates": [ -73.00424194, -36.83467102 ] } },
{ "type": "Feature", "properties": { "RBD": 4591.0, "DEPENDENCI": "MUNICIPAL", "NOMBRE_RBD": "ESCUELA BASICA REPUBLICA DE GRECIA", "prom_lect4": 258.0, "prom_mate4": 237.0 }, "geometry": { "type": "Point", "coordinates": [ -73.01577759, -36.95589066 ] } },
{ "type": "Feature", "properties": { "RBD": 4592.0, "DEPENDENCI": "MUNICIPAL", "NOMBRE_RBD": "ESCUELA BÁSICA IRENE FREI DE CID", "prom_lect4": 279.0, "prom_mate4": 276.0 }, "geometry": { "type": "Point", "coordinates": [ -73.0475769, -36.80457306 ] } },
{ "type": "Feature", "properties": { "RBD": 4593.0, "DEPENDENCI": "MUNICIPAL", "NOMBRE_RBD": "BASICA SARGENTO CANDELARIA PEREZ", "prom_lect4": 229.0, "prom_mate4": 212.0 }, "geometry": { "type": "Point", "coordinates": [ -73.12742615, -36.82649994 ] } },
{ "type": "Feature", "properties": { "RBD": 4594.0, "DEPENDENCI": "MUNICIPAL", "NOMBRE_RBD": "ESCUELA MIGUEL JOSE ZANARTU SANTA MARIA", "prom_lect4": 246.0, "prom_mate4": 245.0 }, "geometry": { "type": "Point", "coordinates": [ -73.10050201, -36.84646606 ] } },
{ "type": "Feature", "properties": { "RBD": 4595.0, "DEPENDENCI": "MUNICIPAL", "NOMBRE_RBD": "ESCUELA ENRIQUE SORO BARRIGA", "prom_lect4": 294.0, "prom_mate4": 259.0 }, "geometry": { "type": "Point", "coordinates": [ -73.116539, -36.83354187 ] } },
{ "type": "Feature", "properties": { "RBD": 4603.0, "DEPENDENCI": "MUNICIPAL", "NOMBRE_RBD": "ESCUELA BASICA LAGOS DE CHILE", "prom_lect4": 219.0, "prom_mate4": 232.0 }, "geometry": { "type": "Point", "coordinates": [ -73.03898621, -36.80952835 ] } },
{ "type": "Feature", "properties": { "RBD": 4609.0, "DEPENDENCI": "MUNICIPAL", "NOMBRE_RBD": "ESCUELA PALESTINA DE PALOMARES", "prom_lect4": 252.0, "prom_mate4": 227.0 }, "geometry": { "type": "Point", "coordinates": [ -72.99260712, -36.82734299 ] } },
{ "type": "Feature", "properties": { "RBD": 4611.0, "DEPENDENCI": "MUNICIPAL", "NOMBRE_RBD": "ESCUELA BASICA LUIS ALBERTO ACEVEDO", "prom_lect4": 253.0, "prom_mate4": 227.0 }, "geometry": { "type": "Point", "coordinates": [ -73.09138489, -36.84204865 ] } },
{ "type": "Feature", "properties": { "RBD": 4612.0, "DEPENDENCI": "MUNICIPAL", "NOMBRE_RBD": "ESCUELA LUIS ALFREDO MUÑOZ BURBOA", "prom_lect4": 261.0, "prom_mate4": 282.0 }, "geometry": { "type": "Point", "coordinates": [ -73.03903198, -36.83518219 ] } },
{ "type": "Feature", "properties": { "RBD": 4613.0, "DEPENDENCI": "MUNICIPAL", "NOMBRE_RBD": "ESCUELA BASICA LAUTARO", "prom_lect4": 209.0, "prom_mate4": 196.0 }, "geometry": { "type": "Point", "coordinates": [ -73.02054596, -36.82615662 ] } },
{ "type": "Feature", "properties": { "RBD": 4614.0, "DEPENDENCI": "MUNICIPAL", "NOMBRE_RBD": "ESCUELA BASICA AGUA DE LA GLORIA", "prom_lect4": 250.0, "prom_mate4": 240.0 }, "geometry": { "type": "Point", "coordinates": [ -72.92337799, -36.82997894 ] } },
{ "type": "Feature", "properties": { "RBD": 4615.0, "DEPENDENCI": "MUNICIPAL", "NOMBRE_RBD": "ESCUELA BASICA BOCA DEL BIO BIO SUR", "prom_lect4": 236.0, "prom_mate4": 235.0 }, "geometry": { "type": "Point", "coordinates": [ -73.13769531, -36.83560944 ] } },
{ "type": "Feature", "properties": { "RBD": 4616.0, "DEPENDENCI": "MUNICIPAL", "NOMBRE_RBD": "ESCUELA BASICA MICHAIHUE", "prom_lect4": 255.0, "prom_mate4": 264.0 }, "geometry": { "type": "Point", "coordinates": [ -73.14139557, -36.84335327 ] } },
{ "type": "Feature", "properties": { "RBD": 4617.0, "DEPENDENCI": "MUNICIPAL", "NOMBRE_RBD": "COLEGIO GALVARINO DE LOMAS COLORADAS", "prom_lect4": 260.0, "prom_mate4": 236.0 }, "geometry": { "type": "Point", "coordinates": [ -73.12464142, -36.86075974 ] } },
{ "type": "Feature", "properties": { "RBD": 4622.0, "DEPENDENCI": "MUNICIPAL", "NOMBRE_RBD": "ESCUELA BASICA FUNDO CHANCO", "prom_lect4": 271.0, "prom_mate4": 242.0 }, "geometry": { "type": "Point", "coordinates": [ -72.96723938, -36.80224991 ] } },
{ "type": "Feature", "properties": { "RBD": 4626.0, "DEPENDENCI": "PARTICULAR SUBVENCIONADO", "NOMBRE_RBD": "ESCUELA JOSE MIGUEL CARRERA", "prom_lect4": 246.0, "prom_mate4": 244.0 }, "geometry": { "type": "Point", "coordinates": [ -73.1410546, -36.84974362 ] } },
{ "type": "Feature", "properties": { "RBD": 4627.0, "DEPENDENCI": "PARTICULAR SUBVENCIONADO", "NOMBRE_RBD": "COLEGIO PARTICULAR AURORA DE CHILE", "prom_lect4": 279.0, "prom_mate4": 277.0 }, "geometry": { "type": "Point", "coordinates": [ -73.02539451, -36.92635561 ] } },
{ "type": "Feature", "properties": { "RBD": 4628.0, "DEPENDENCI": "PARTICULAR SUBVENCIONADO", "NOMBRE_RBD": "ESCUELA PARTICULAR PRESIDENTE GABRIEL GONZÁLEZ VIDELA", "prom_lect4": 259.0, "prom_mate4": 242.0 }, "geometry": { "type": "Point", "coordinates": [ -73.01952627, -36.94015956 ] } },
{ "type": "Feature", "properties": { "RBD": 4629.0, "DEPENDENCI": "PARTICULAR SUBVENCIONADO", "NOMBRE_RBD": "ESCUELA PARTICULAR PEDRO DE ONA", "prom_lect4": 284.0, "prom_mate4": 292.0 }, "geometry": { "type": "Point", "coordinates": [ -73.12447409, -36.82985906 ] } },
{ "type": "Feature", "properties": { "RBD": 4630.0, "DEPENDENCI": "PARTICULAR SUBVENCIONADO", "NOMBRE_RBD": "COLEGIO DEL SAGRADO CORAZON", "prom_lect4": 277.0, "prom_mate4": 271.0 }, "geometry": { "type": "Point", "coordinates": [ -73.05568719, -36.82602402 ] } },
{ "type": "Feature", "properties": { "RBD": 4631.0, "DEPENDENCI": "PARTICULAR SUBVENCIONADO", "NOMBRE_RBD": "COLEGIO PARTICULAR ANDRÉS BELLO", "prom_lect4": 286.0, "prom_mate4": 283.0 }, "geometry": { "type": "Point", "coordinates": [ -73.02412509, -36.93250138 ] } },
{ "type": "Feature", "properties": { "RBD": 4633.0, "DEPENDENCI": "PARTICULAR SUBVENCIONADO", "NOMBRE_RBD": "COLEGIO PARTICULAR SANTA INES", "prom_lect4": 288.0, "prom_mate4": 267.0 }, "geometry": { "type": "Point", "coordinates": [ -73.02736153, -36.91245885 ] } },
{ "type": "Feature", "properties": { "RBD": 4635.0, "DEPENDENCI": "PARTICULAR SUBVENCIONADO", "NOMBRE_RBD": "COLEGIO LAGUNA REDONDA", "prom_lect4": 288.0, "prom_mate4": 261.0 }, "geometry": { "type": "Point", "coordinates": [ -73.06747742, -36.80708515 ] } },
{ "type": "Feature", "properties": { "RBD": 4636.0, "DEPENDENCI": "PARTICULAR SUBVENCIONADO", "NOMBRE_RBD": "COLEGIO MARCELA PAZ", "prom_lect4": 298.0, "prom_mate4": 269.0 }, "geometry": { "type": "Point", "coordinates": [ -73.05135746, -36.81555577 ] } },
{ "type": "Feature", "properties": { "RBD": 4639.0, "DEPENDENCI": "PARTICULAR SUBVENCIONADO", "NOMBRE_RBD": "ESCUELA PARTICULAR SANTA EMILIA", "prom_lect4": 312.0, "prom_mate4": 295.0 }, "geometry": { "type": "Point", "coordinates": [ -73.043355550000015, -36.81378734 ] } },
{ "type": "Feature", "properties": { "RBD": 4641.0, "DEPENDENCI": "PARTICULAR SUBVENCIONADO", "NOMBRE_RBD": "COLEGIO PARTICULAR ALBORADA", "prom_lect4": 278.0, "prom_mate4": 259.0 }, "geometry": { "type": "Point", "coordinates": [ -73.09059903, -36.84007923 ] } },
{ "type": "Feature", "properties": { "RBD": 4644.0, "DEPENDENCI": "PARTICULAR SUBVENCIONADO", "NOMBRE_RBD": "COLEGIO PARTICULAR JUAN BOSCO", "prom_lect4": 282.0, "prom_mate4": 275.0 }, "geometry": { "type": "Point", "coordinates": [ -73.12965271, -36.88214107 ] } },
{ "type": "Feature", "properties": { "RBD": 4645.0, "DEPENDENCI": "PARTICULAR SUBVENCIONADO", "NOMBRE_RBD": "COLEGIO PARTICULAR EL LIBERTADOR", "prom_lect4": 281.0, "prom_mate4": 271.0 }, "geometry": { "type": "Point", "coordinates": [ -73.03434553000001, -36.81487951 ] } },
{ "type": "Feature", "properties": { "RBD": 4646.0, "DEPENDENCI": "PARTICULAR SUBVENCIONADO", "NOMBRE_RBD": "COLEGIO SANTA SABINA", "prom_lect4": 298.0, "prom_mate4": 284.0 }, "geometry": { "type": "Point", "coordinates": [ -73.04283934, -36.78964621 ] } },
{ "type": "Feature", "properties": { "RBD": 4647.0, "DEPENDENCI": "PARTICULAR SUBVENCIONADO", "NOMBRE_RBD": "COLEGIO PARTICULAR ALONSO DE ERCILLA", "prom_lect4": 250.0, "prom_mate4": 241.0 }, "geometry": { "type": "Point", "coordinates": [ -73.05747539, -36.83662446 ] } },
{ "type": "Feature", "properties": { "RBD": 4648.0, "DEPENDENCI": "PARTICULAR SUBVENCIONADO", "NOMBRE_RBD": "ESCUELA BASICA MALVINA ROMERO VIDAL", "prom_lect4": 265.0, "prom_mate4": 243.0 }, "geometry": { "type": "Point", "coordinates": [ -73.05658124, -36.81632848 ] } },
{ "type": "Feature", "properties": { "RBD": 4649.0, "DEPENDENCI": "PARTICULAR SUBVENCIONADO", "NOMBRE_RBD": "COLEGIO PARTICULAR EL ARRAYAN", "prom_lect4": 275.0, "prom_mate4": 254.0 }, "geometry": { "type": "Point", "coordinates": [ -73.0971335, -36.84484737 ] } },
{ "type": "Feature", "properties": { "RBD": 4650.0, "DEPENDENCI": "PARTICULAR SUBVENCIONADO", "NOMBRE_RBD": "COLEGIO COLEGIO MARTÍN LUTHER", "prom_lect4": 257.0, "prom_mate4": 254.0 }, "geometry": { "type": "Point", "coordinates": [ -73.12182591, -36.83122197 ] } },
{ "type": "Feature", "properties": { "RBD": 4656.0, "DEPENDENCI": "PARTICULAR SUBVENCIONADO", "NOMBRE_RBD": "ESCUELA PARTICULAR INSTITUTO SAN PEDRO", "prom_lect4": 269.0, "prom_mate4": 260.0 }, "geometry": { "type": "Point", "coordinates": [ -73.11419331, -36.83232552 ] } },
{ "type": "Feature", "properties": { "RBD": 4658.0, "DEPENDENCI": "PARTICULAR SUBVENCIONADO", "NOMBRE_RBD": "ESCUELA PARTICULAR MANQUIMAVIDA", "prom_lect4": 281.0, "prom_mate4": 271.0 }, "geometry": { "type": "Point", "coordinates": [ -73.02000077, -36.93639275 ] } },
{ "type": "Feature", "properties": { "RBD": 4659.0, "DEPENDENCI": "PARTICULAR SUBVENCIONADO", "NOMBRE_RBD": "COLEGIO LA PROVIDENCIA", "prom_lect4": 277.0, "prom_mate4": 271.0 }, "geometry": { "type": "Point", "coordinates": [ -73.03977839, -36.82249845 ] } },
{ "type": "Feature", "properties": { "RBD": 4660.0, "DEPENDENCI": "PARTICULAR SUBVENCIONADO", "NOMBRE_RBD": "ESCUELA PARTTICULAR SANTA CATALINA DE SIENA", "prom_lect4": 257.0, "prom_mate4": 245.0 }, "geometry": { "type": "Point", "coordinates": [ -73.05912699, -36.83606247 ] } },
{ "type": "Feature", "properties": { "RBD": 4662.0, "DEPENDENCI": "PARTICULAR SUBVENCIONADO", "NOMBRE_RBD": "COLEGIO SAN IGNACIO", "prom_lect4": 275.0, "prom_mate4": 273.0 }, "geometry": { "type": "Point", "coordinates": [ -73.1224938, -36.8394697 ] } },
{ "type": "Feature", "properties": { "RBD": 4663.0, "DEPENDENCI": "PARTICULAR SUBVENCIONADO", "NOMBRE_RBD": "COLEGIO MARIA INMACULADA", "prom_lect4": 286.0, "prom_mate4": 285.0 }, "geometry": { "type": "Point", "coordinates": [ -73.06013153, -36.82182978 ] } },
{ "type": "Feature", "properties": { "RBD": 4664.0, "DEPENDENCI": "PARTICULAR SUBVENCIONADO", "NOMBRE_RBD": "COLEGIO SANTA EUFRASIA", "prom_lect4": 293.0, "prom_mate4": 275.0 }, "geometry": { "type": "Point", "coordinates": [ -73.03905367, -36.81529784 ] } },
{ "type": "Feature", "properties": { "RBD": 4665.0, "DEPENDENCI": "PARTICULAR SUBVENCIONADO", "NOMBRE_RBD": "COLEGIO EDWARD", "prom_lect4": 296.0, "prom_mate4": 281.0 }, "geometry": { "type": "Point", "coordinates": [ -73.037676, -36.8185319 ] } },
{ "type": "Feature", "properties": { "RBD": 4666.0, "DEPENDENCI": "PARTICULAR SUBVENCIONADO", "NOMBRE_RBD": "COLEGIO SANTA LUISA DE CONCEPCION", "prom_lect4": 294.0, "prom_mate4": 288.0 }, "geometry": { "type": "Point", "coordinates": [ -73.07359119, -36.81266944 ] } },
{ "type": "Feature", "properties": { "RBD": 4667.0, "DEPENDENCI": "PARTICULAR SUBVENCIONADO", "NOMBRE_RBD": "COLEGIO SAN PATRICIO", "prom_lect4": 270.0, "prom_mate4": 255.0 }, "geometry": { "type": "Point", "coordinates": [ -73.02948804, -36.92276342 ] } },
{ "type": "Feature", "properties": { "RBD": 4669.0, "DEPENDENCI": "PARTICULAR SUBVENCIONADO", "NOMBRE_RBD": "LICEO SAN AGUSTIN DE CONCEPCION", "prom_lect4": 286.0, "prom_mate4": 279.0 }, "geometry": { "type": "Point", "coordinates": [ -73.04445053, -36.8277656 ] } },
{ "type": "Feature", "properties": { "RBD": 4670.0, "DEPENDENCI": "PARTICULAR SUBVENCIONADO", "NOMBRE_RBD": "ESCUELA PARTICULAR EL NAZARENO", "prom_lect4": 235.0, "prom_mate4": 241.0 }, "geometry": { "type": "Point", "coordinates": [ -73.03735327, -36.79886388 ] } },
{ "type": "Feature", "properties": { "RBD": 4672.0, "DEPENDENCI": "PARTICULAR SUBVENCIONADO", "NOMBRE_RBD": "LICEO TÉCNICO PROFESIONAL JORGE SÁNCHEZ UGARTE", "prom_lect4": 288.0, "prom_mate4": 287.0 }, "geometry": { "type": "Point", "coordinates": [ -73.04562999, -36.80610009 ] } },
{ "type": "Feature", "properties": { "RBD": 4675.0, "DEPENDENCI": "PARTICULAR SUBVENCIONADO", "NOMBRE_RBD": "ESCUELA PARTICULAR ANDRES BELLO", "prom_lect4": 249.0, "prom_mate4": 236.0 }, "geometry": { "type": "Point", "coordinates": [ -73.14237445, -36.84501483 ] } },
{ "type": "Feature", "properties": { "RBD": 4677.0, "DEPENDENCI": "PARTICULAR SUBVENCIONADO", "NOMBRE_RBD": "ESCUELA PARTICULAR SAN JOSE", "prom_lect4": 296.0, "prom_mate4": 298.0 }, "geometry": { "type": "Point", "coordinates": [ -73.13470285, -36.88661268 ] } },
{ "type": "Feature", "properties": { "RBD": 4679.0, "DEPENDENCI": "PARTICULAR PAGADO", "NOMBRE_RBD": "KINGSTON COLLEGE", "prom_lect4": 311.0, "prom_mate4": 313.0 }, "geometry": { "type": "Point", "coordinates": [ -73.04104, -36.805232 ] } },
{ "type": "Feature", "properties": { "RBD": 4680.0, "DEPENDENCI": "PARTICULAR PAGADO", "NOMBRE_RBD": "COLEGIO BAUTISTA DE CONCEPCION", "prom_lect4": 286.0, "prom_mate4": 248.0 }, "geometry": { "type": "Point", "coordinates": [ -73.05983, -36.823565 ] } },
{ "type": "Feature", "properties": { "RBD": 4686.0, "DEPENDENCI": "PARTICULAR PAGADO", "NOMBRE_RBD": "INSTITUTO DE HUMANIDADES ALFREDO SILVA S", "prom_lect4": 291.0, "prom_mate4": 277.0 }, "geometry": { "type": "Point", "coordinates": [ -73.04507, -36.83108 ] } },
{ "type": "Feature", "properties": { "RBD": 4687.0, "DEPENDENCI": "PARTICULAR PAGADO", "NOMBRE_RBD": "COLEGIO ALEMAN DE CONCEPCIÓN", "prom_lect4": 307.0, "prom_mate4": 295.0 }, "geometry": { "type": "Point", "coordinates": [ -73.09295, -36.850473 ] } },
{ "type": "Feature", "properties": { "RBD": 4688.0, "DEPENDENCI": "PARTICULAR PAGADO", "NOMBRE_RBD": "CHARLES DE GAULLE", "prom_lect4": 299.0, "prom_mate4": 277.0 }, "geometry": { "type": "Point", "coordinates": [ -73.04575, -36.830802 ] } },
{ "type": "Feature", "properties": { "RBD": 4689.0, "DEPENDENCI": "PARTICULAR PAGADO", "NOMBRE_RBD": "COLEGIO CONCEPCION", "prom_lect4": 296.0, "prom_mate4": 308.0 }, "geometry": { "type": "Point", "coordinates": [ -73.04931, -36.857386 ] } },
{ "type": "Feature", "properties": { "RBD": 4691.0, "DEPENDENCI": "PARTICULAR SUBVENCIONADO", "NOMBRE_RBD": "COLEGIO CHILENO ARABE", "prom_lect4": 282.0, "prom_mate4": 246.0 }, "geometry": { "type": "Point", "coordinates": [ -73.02733503, -36.90342187 ] } },
{ "type": "Feature", "properties": { "RBD": 4694.0, "DEPENDENCI": "PARTICULAR PAGADO", "NOMBRE_RBD": "SAINT JOHN´S SCHOOL", "prom_lect4": 308.0, "prom_mate4": 298.0 }, "geometry": { "type": "Point", "coordinates": [ -73.1056395, -36.8624085 ] } },
{ "type": "Feature", "properties": { "RBD": 4698.0, "DEPENDENCI": "PARTICULAR PAGADO", "NOMBRE_RBD": "SAN PEDRO NOLASCO", "prom_lect4": 282.0, "prom_mate4": 284.0 }, "geometry": { "type": "Point", "coordinates": [ -73.0473, -36.823839 ] } },
{ "type": "Feature", "properties": { "RBD": 4711.0, "DEPENDENCI": "MUNICIPAL", "NOMBRE_RBD": "ARTURO PRAT CHACON", "prom_lect4": 244.0, "prom_mate4": 237.0 }, "geometry": { "type": "Point", "coordinates": [ -73.08921051, -36.77614594 ] } },
{ "type": "Feature", "properties": { "RBD": 4712.0, "DEPENDENCI": "MUNICIPAL", "NOMBRE_RBD": "LICEO SANTA LEONOR", "prom_lect4": 250.0, "prom_mate4": 235.0 }, "geometry": { "type": "Point", "coordinates": [ -73.08509827, -36.77668762 ] } },
{ "type": "Feature", "properties": { "RBD": 4713.0, "DEPENDENCI": "MUNICIPAL", "NOMBRE_RBD": "ESCUELA THOMAS JEFFERSON D 465", "prom_lect4": 264.0, "prom_mate4": 259.0 }, "geometry": { "type": "Point", "coordinates": [ -73.09786224, -36.78453445 ] } },
{ "type": "Feature", "properties": { "RBD": 4714.0, "DEPENDENCI": "MUNICIPAL", "NOMBRE_RBD": "ESCUELA HELEN KELLER ADAMS", "prom_lect4": 241.0, "prom_mate4": 217.0 }, "geometry": { "type": "Point", "coordinates": [ -73.09860229, -36.78451157 ] } },
{ "type": "Feature", "properties": { "RBD": 4717.0, "DEPENDENCI": "MUNICIPAL", "NOMBRE_RBD": "LICEO TÉCNICO PROFESIONAL LUCILA GODOY ALCAYAGA", "prom_lect4": 244.0, "prom_mate4": 219.0 }, "geometry": { "type": "Point", "coordinates": [ -73.10926819, -36.78181839 ] } },
{ "type": "Feature", "properties": { "RBD": 4719.0, "DEPENDENCI": "MUNICIPAL", "NOMBRE_RBD": "ESCUELA REPUBLICA DEL PERU", "prom_lect4": 251.0, "prom_mate4": 218.0 }, "geometry": { "type": "Point", "coordinates": [ -73.11632538, -36.78573608 ] } },
{ "type": "Feature", "properties": { "RBD": 4720.0, "DEPENDENCI": "MUNICIPAL", "NOMBRE_RBD": "ESCUELA D N° 475", "prom_lect4": 238.0, "prom_mate4": 230.0 }, "geometry": { "type": "Point", "coordinates": [ -73.0954895, -36.7782402 ] } },
{ "type": "Feature", "properties": { "RBD": 4722.0, "DEPENDENCI": "MUNICIPAL", "NOMBRE_RBD": "ESCUELA BLANCA ESTELA PRAT CARVAJAL", "prom_lect4": 263.0, "prom_mate4": 251.0 }, "geometry": { "type": "Point", "coordinates": [ -73.10396576, -36.78974915 ] } },
{ "type": "Feature", "properties": { "RBD": 4723.0, "DEPENDENCI": "MUNICIPAL", "NOMBRE_RBD": "ESCUELA MEXICO ESTADO DE GUERRERO", "prom_lect4": 279.0, "prom_mate4": 279.0 }, "geometry": { "type": "Point", "coordinates": [ -73.11549377, -36.71405029 ] } },
{ "type": "Feature", "properties": { "RBD": 4724.0, "DEPENDENCI": "MUNICIPAL", "NOMBRE_RBD": "ESCUELA BASICA LA DAMA BLANCA", "prom_lect4": 266.0, "prom_mate4": 233.0 }, "geometry": { "type": "Point", "coordinates": [ -73.11631775, -36.71464157 ] } },
{ "type": "Feature", "properties": { "RBD": 4725.0, "DEPENDENCI": "MUNICIPAL", "NOMBRE_RBD": "ESCUELA VILLA INDEPENDENCIA", "prom_lect4": 274.0, "prom_mate4": 263.0 }, "geometry": { "type": "Point", "coordinates": [ -73.0934906, -36.76021576 ] } },
{ "type": "Feature", "properties": { "RBD": 4726.0, "DEPENDENCI": "MUNICIPAL", "NOMBRE_RBD": "ESCUELA BASICA LAS HIGUERAS", "prom_lect4": 243.0, "prom_mate4": 225.0 }, "geometry": { "type": "Point", "coordinates": [ -73.10283661, -36.74266815 ] } },
{ "type": "Feature", "properties": { "RBD": 4727.0, "DEPENDENCI": "MUNICIPAL", "NOMBRE_RBD": "COLEGIO HUACHIPATO", "prom_lect4": 270.0, "prom_mate4": 264.0 }, "geometry": { "type": "Point", "coordinates": [ -73.10284424, -36.74303818 ] } },
{ "type": "Feature", "properties": { "RBD": 4728.0, "DEPENDENCI": "MUNICIPAL", "NOMBRE_RBD": "COLEGIO LOS CONDORES", "prom_lect4": 256.0, "prom_mate4": 228.0 }, "geometry": { "type": "Point", "coordinates": [ -73.09339142, -36.75488281 ] } },
{ "type": "Feature", "properties": { "RBD": 4730.0, "DEPENDENCI": "MUNICIPAL", "NOMBRE_RBD": "ESCUELA ALONKURA", "prom_lect4": 265.0, "prom_mate4": 245.0 }, "geometry": { "type": "Point", "coordinates": [ -73.09255219, -36.79162216 ] } },
{ "type": "Feature", "properties": { "RBD": 4731.0, "DEPENDENCI": "MUNICIPAL", "NOMBRE_RBD": "ESCUELA BÁSICA CRISTÓBAL COLÓN", "prom_lect4": 244.0, "prom_mate4": 247.0 }, "geometry": { "type": "Point", "coordinates": [ -73.08254242, -36.80141449 ] } },
{ "type": "Feature", "properties": { "RBD": 4732.0, "DEPENDENCI": "MUNICIPAL", "NOMBRE_RBD": "ESCUELA BASICA CRUZ DEL SUR", "prom_lect4": 279.0, "prom_mate4": 256.0 }, "geometry": { "type": "Point", "coordinates": [ -73.08782959, -36.75237656 ] } },
{ "type": "Feature", "properties": { "RBD": 4733.0, "DEPENDENCI": "MUNICIPAL", "NOMBRE_RBD": "LICEO ANITA SERRANO SEPULVEDA", "prom_lect4": 258.0, "prom_mate4": 223.0 }, "geometry": { "type": "Point", "coordinates": [ -73.11225891, -36.72079849 ] } },
{ "type": "Feature", "properties": { "RBD": 4734.0, "DEPENDENCI": "MUNICIPAL", "NOMBRE_RBD": "ESCUELA BASICA LIBERTAD", "prom_lect4": 273.0, "prom_mate4": 262.0 }, "geometry": { "type": "Point", "coordinates": [ -73.11186218, -36.73386002 ] } },
{ "type": "Feature", "properties": { "RBD": 4736.0, "DEPENDENCI": "MUNICIPAL", "NOMBRE_RBD": "ESCUELA CORNETA CABRALES", "prom_lect4": 266.0, "prom_mate4": 234.0 }, "geometry": { "type": "Point", "coordinates": [ -73.11638641, -36.69041443 ] } },
{ "type": "Feature", "properties": { "RBD": 4737.0, "DEPENDENCI": "MUNICIPAL", "NOMBRE_RBD": "COLEGIO BASICO VILLA ACERO", "prom_lect4": 256.0, "prom_mate4": 240.0 }, "geometry": { "type": "Point", "coordinates": [ -73.09042358, -36.79776764 ] } },
{ "type": "Feature", "properties": { "RBD": 4742.0, "DEPENDENCI": "MUNICIPAL", "NOMBRE_RBD": "COLEGIO REMODELACION SIMONS", "prom_lect4": 254.0, "prom_mate4": 240.0 }, "geometry": { "type": "Point", "coordinates": [ -73.10865784, -36.72401047 ] } },
{ "type": "Feature", "properties": { "RBD": 4744.0, "DEPENDENCI": "MUNICIPAL", "NOMBRE_RBD": "ESCUELA BASICA CERRO CORNOU", "prom_lect4": 222.0, "prom_mate4": 228.0 }, "geometry": { "type": "Point", "coordinates": [ -73.11826324, -36.71115494 ] } },
{ "type": "Feature", "properties": { "RBD": 4746.0, "DEPENDENCI": "MUNICIPAL", "NOMBRE_RBD": "ESCUELA BASICA BUENA VISTA", "prom_lect4": 254.0, "prom_mate4": 260.0 }, "geometry": { "type": "Point", "coordinates": [ -73.123893740000014, -36.71434021 ] } },
{ "type": "Feature", "properties": { "RBD": 4747.0, "DEPENDENCI": "MUNICIPAL", "NOMBRE_RBD": "ESCUELA F 500 HUERTOS FAMILIARES", "prom_lect4": 258.0, "prom_mate4": 259.0 }, "geometry": { "type": "Point", "coordinates": [ -73.08612823, -36.75936127 ] } },
{ "type": "Feature", "properties": { "RBD": 4748.0, "DEPENDENCI": "MUNICIPAL", "NOMBRE_RBD": "ESCUELA REPUBLICA BOLIVARIANA DE VENEZUELA", "prom_lect4": 210.0, "prom_mate4": 201.0 }, "geometry": { "type": "Point", "coordinates": [ -73.1244278, -36.71760178 ] } },
{ "type": "Feature", "properties": { "RBD": 4750.0, "DEPENDENCI": "MUNICIPAL", "NOMBRE_RBD": "ESCUELA SANTA CLARA", "prom_lect4": 257.0, "prom_mate4": 238.0 }, "geometry": { "type": "Point", "coordinates": [ -73.09384918, -36.73958588 ] } },
{ "type": "Feature", "properties": { "RBD": 4753.0, "DEPENDENCI": "MUNICIPAL", "NOMBRE_RBD": "ESCUELA BASICA PENINSULA DE TUMBES", "prom_lect4": 255.0, "prom_mate4": 273.0 }, "geometry": { "type": "Point", "coordinates": [ -73.13209534, -36.72180176 ] } },
{ "type": "Feature", "properties": { "RBD": 4754.0, "DEPENDENCI": "MUNICIPAL", "NOMBRE_RBD": "ESCUELA BASICA CERRO SAN FRANCISCO", "prom_lect4": 237.0, "prom_mate4": 221.0 }, "geometry": { "type": "Point", "coordinates": [ -73.13007355, -36.71529388 ] } },
{ "type": "Feature", "properties": { "RBD": 4758.0, "DEPENDENCI": "PARTICULAR SUBVENCIONADO", "NOMBRE_RBD": "COLEGIO CARMELA CARVAJAL DE PRAT", "prom_lect4": 293.0, "prom_mate4": 277.0 }, "geometry": { "type": "Point", "coordinates": [ -73.06067378, -36.63980632 ] } },
{ "type": "Feature", "properties": { "RBD": 4760.0, "DEPENDENCI": "PARTICULAR SUBVENCIONADO", "NOMBRE_RBD": "COLEGIO BERNARDO O´HIGGINS", "prom_lect4": 271.0, "prom_mate4": 258.0 }, "geometry": { "type": "Point", "coordinates": [ -73.106962360000011, -36.78717106 ] } },
{ "type": "Feature", "properties": { "RBD": 4762.0, "DEPENDENCI": "PARTICULAR SUBVENCIONADO", "NOMBRE_RBD": "LICEO LA ASUNCION", "prom_lect4": 294.0, "prom_mate4": 287.0 }, "geometry": { "type": "Point", "coordinates": [ -73.1097073, -36.74655764 ] } },
{ "type": "Feature", "properties": { "RBD": 4767.0, "DEPENDENCI": "PARTICULAR SUBVENCIONADO", "NOMBRE_RBD": "ESCUELA PARTICULAR MANUEL RODRIGUEZ", "prom_lect4": 307.0, "prom_mate4": 297.0 }, "geometry": { "type": "Point", "coordinates": [ -73.09155804000001, -36.79990928 ] } },
{ "type": "Feature", "properties": { "RBD": 4772.0, "DEPENDENCI": "PARTICULAR SUBVENCIONADO", "NOMBRE_RBD": "ESCUELA ADVENTISTA DE HUALPEN", "prom_lect4": 295.0, "prom_mate4": 266.0 }, "geometry": { "type": "Point", "coordinates": [ -73.09116136, -36.79098986 ] } },
{ "type": "Feature", "properties": { "RBD": 4774.0, "DEPENDENCI": "PARTICULAR SUBVENCIONADO", "NOMBRE_RBD": "ESCUELA PARTICULAR ENRIQUE MOLINA GARMENDIA", "prom_lect4": 242.0, "prom_mate4": 233.0 }, "geometry": { "type": "Point", "coordinates": [ -73.0983372, -36.7803194 ] } },
{ "type": "Feature", "properties": { "RBD": 4777.0, "DEPENDENCI": "PARTICULAR SUBVENCIONADO", "NOMBRE_RBD": "ESCUELA PARTICULAR ESMERALDA", "prom_lect4": 246.0, "prom_mate4": 241.0 }, "geometry": { "type": "Point", "coordinates": [ -73.08813139, -36.77259602 ] } },
{ "type": "Feature", "properties": { "RBD": 4778.0, "DEPENDENCI": "PARTICULAR SUBVENCIONADO", "NOMBRE_RBD": "COLEGIO PARTICULAR TALCAHUANO", "prom_lect4": 273.0, "prom_mate4": 261.0 }, "geometry": { "type": "Point", "coordinates": [ -73.10209464, -36.73853481 ] } },
{ "type": "Feature", "properties": { "RBD": 4779.0, "DEPENDENCI": "PARTICULAR SUBVENCIONADO", "NOMBRE_RBD": "COLEGIO ADVENTISTA DE TALCAHUANO CENTRO", "prom_lect4": 288.0, "prom_mate4": 269.0 }, "geometry": { "type": "Point", "coordinates": [ -73.10990221, -36.72059262 ] } },
{ "type": "Feature", "properties": { "RBD": 4781.0, "DEPENDENCI": "PARTICULAR SUBVENCIONADO", "NOMBRE_RBD": "ESCUELA BASICA ELIEZER", "prom_lect4": 292.0, "prom_mate4": 275.0 }, "geometry": { "type": "Point", "coordinates": [ -73.08707894, -36.74800573 ] } },
{ "type": "Feature", "properties": { "RBD": 4782.0, "DEPENDENCI": "PARTICULAR SUBVENCIONADO", "NOMBRE_RBD": "CENTRO EDUCACIÓN EVANGÉLICO DE HUALPÉN", "prom_lect4": 290.0, "prom_mate4": 271.0 }, "geometry": { "type": "Point", "coordinates": [ -73.09990729, -36.78000891 ] } },
{ "type": "Feature", "properties": { "RBD": 4785.0, "DEPENDENCI": "PARTICULAR SUBVENCIONADO", "NOMBRE_RBD": "COLEGIO SANTA BERNARDITA", "prom_lect4": 276.0, "prom_mate4": 265.0 }, "geometry": { "type": "Point", "coordinates": [ -73.09316229, -36.74949737 ] } },
{ "type": "Feature", "properties": { "RBD": 4786.0, "DEPENDENCI": "PARTICULAR SUBVENCIONADO", "NOMBRE_RBD": "ESCUELA SANTA TERESITA", "prom_lect4": 277.0, "prom_mate4": 265.0 }, "geometry": { "type": "Point", "coordinates": [ -73.10608898, -36.78002109 ] } },
{ "type": "Feature", "properties": { "RBD": 4790.0, "DEPENDENCI": "PARTICULAR SUBVENCIONADO", "NOMBRE_RBD": "COLEGIO MONTANER DE HUALPEN", "prom_lect4": 304.0, "prom_mate4": 294.0 }, "geometry": { "type": "Point", "coordinates": [ -73.11056422, -36.78702438 ] } },
{ "type": "Feature", "properties": { "RBD": 4791.0, "DEPENDENCI": "PARTICULAR SUBVENCIONADO", "NOMBRE_RBD": "ESCUELA PARTICULAR DIEGO PORTALES", "prom_lect4": 280.0, "prom_mate4": 239.0 }, "geometry": { "type": "Point", "coordinates": [ -73.0958448, -36.7841841 ] } },
{ "type": "Feature", "properties": { "RBD": 4792.0, "DEPENDENCI": "PARTICULAR SUBVENCIONADO", "NOMBRE_RBD": "COLEGIO SANTA CECILIA", "prom_lect4": 280.0, "prom_mate4": 265.0 }, "geometry": { "type": "Point", "coordinates": [ -73.11918301, -36.722503260000011 ] } },
{ "type": "Feature", "properties": { "RBD": 4796.0, "DEPENDENCI": "PARTICULAR PAGADO", "NOMBRE_RBD": "ARTURO PRAT CHACON", "prom_lect4": 307.0, "prom_mate4": 306.0 }, "geometry": { "type": "Point", "coordinates": [ -73.12047, -36.700649 ] } },
{ "type": "Feature", "properties": { "RBD": 4798.0, "DEPENDENCI": "PARTICULAR PAGADO", "NOMBRE_RBD": "SAGRADOS CORAZONES", "prom_lect4": 292.0, "prom_mate4": 288.0 }, "geometry": { "type": "Point", "coordinates": [ -73.0863, -36.800642 ] } },
{ "type": "Feature", "properties": { "RBD": 4806.0, "DEPENDENCI": "MUNICIPAL", "NOMBRE_RBD": "ESCUELA REPUBLICA DE ITALIA", "prom_lect4": 268.0, "prom_mate4": 257.0 }, "geometry": { "type": "Point", "coordinates": [ -73.00014496, -36.74196243 ] } },
{ "type": "Feature", "properties": { "RBD": 4807.0, "DEPENDENCI": "MUNICIPAL", "NOMBRE_RBD": "ESCUELA ISLA DE PASCUA", "prom_lect4": 256.0, "prom_mate4": 247.0 }, "geometry": { "type": "Point", "coordinates": [ -72.99377441, -36.73805618 ] } },
{ "type": "Feature", "properties": { "RBD": 4808.0, "DEPENDENCI": "MUNICIPAL", "NOMBRE_RBD": "ESCUELA PENCO", "prom_lect4": 275.0, "prom_mate4": 256.0 }, "geometry": { "type": "Point", "coordinates": [ -72.99327087, -36.74695587 ] } },
{ "type": "Feature", "properties": { "RBD": 4809.0, "DEPENDENCI": "MUNICIPAL", "NOMBRE_RBD": "ESCUELA EDUARDO CAMBELL SAAVEDRA", "prom_lect4": 261.0, "prom_mate4": 255.0 }, "geometry": { "type": "Point", "coordinates": [ -72.99098206, -36.72550201 ] } },
{ "type": "Feature", "properties": { "RBD": 4810.0, "DEPENDENCI": "MUNICIPAL", "NOMBRE_RBD": "ESCUELA ALMIRANTE JORGE MONTT ÁLVAREZ", "prom_lect4": 290.0, "prom_mate4": 271.0 }, "geometry": { "type": "Point", "coordinates": [ -72.98994446, -36.72894669 ] } },
{ "type": "Feature", "properties": { "RBD": 4811.0, "DEPENDENCI": "MUNICIPAL", "NOMBRE_RBD": "ESCUELA ALMIRANTE PATRICIO LYNCH", "prom_lect4": 272.0, "prom_mate4": 267.0 }, "geometry": { "type": "Point", "coordinates": [ -72.97229004, -36.71287537 ] } },
{ "type": "Feature", "properties": { "RBD": 4812.0, "DEPENDENCI": "MUNICIPAL", "NOMBRE_RBD": "ESCUELA LA GREDA", "prom_lect4": 243.0, "prom_mate4": 240.0 }, "geometry": { "type": "Point", "coordinates": [ -73.01329041, -36.76751709 ] } },
{ "type": "Feature", "properties": { "RBD": 4813.0, "DEPENDENCI": "MUNICIPAL", "NOMBRE_RBD": "ESCUELA VIPLA", "prom_lect4": 257.0, "prom_mate4": 240.0 }, "geometry": { "type": "Point", "coordinates": [ -72.97621155, -36.72106171 ] } },
{ "type": "Feature", "properties": { "RBD": 4814.0, "DEPENDENCI": "MUNICIPAL", "NOMBRE_RBD": "ESCUELA ETHEL HENCK DE GRANT", "prom_lect4": 252.0, "prom_mate4": 237.0 }, "geometry": { "type": "Point", "coordinates": [ -73.02101898, -36.78165054 ] } },
{ "type": "Feature", "properties": { "RBD": 4817.0, "DEPENDENCI": "MUNICIPAL", "NOMBRE_RBD": "ESCUELA BASICA PRIMER AGUA ABAJO", "prom_lect4": 209.0, "prom_mate4": 210.0 }, "geometry": { "type": "Point", "coordinates": [ -72.90492249, -36.72328949 ] } },
{ "type": "Feature", "properties": { "RBD": 4818.0, "DEPENDENCI": "PARTICULAR SUBVENCIONADO", "NOMBRE_RBD": "COLEGIO PARTICULAR FUNNY SCHOOL", "prom_lect4": 255.0, "prom_mate4": 218.0 }, "geometry": { "type": "Point", "coordinates": [ -72.99470579, -36.73837477 ] } },
{ "type": "Feature", "properties": { "RBD": 4820.0, "DEPENDENCI": "PARTICULAR SUBVENCIONADO", "NOMBRE_RBD": "ESCUELA PARTICULAR QUEEN ELIZABETH SCHOOL", "prom_lect4": 288.0, "prom_mate4": 265.0 }, "geometry": { "type": "Point", "coordinates": [ -72.98864225, -36.73376089 ] } },
{ "type": "Feature", "properties": { "RBD": 4822.0, "DEPENDENCI": "PARTICULAR SUBVENCIONADO", "NOMBRE_RBD": "COLEGIO EL REFUGIO", "prom_lect4": 299.0, "prom_mate4": 293.0 }, "geometry": { "type": "Point", "coordinates": [ -72.99798938, -36.74073322000001 ] } },
{ "type": "Feature", "properties": { "RBD": 4830.0, "DEPENDENCI": "MUNICIPAL", "NOMBRE_RBD": "LICEO REPÚBLICA DEL ECUADOR", "prom_lect4": 301.0, "prom_mate4": 289.0 }, "geometry": { "type": "Point", "coordinates": [ -72.95342255, -36.61575317 ] } },
{ "type": "Feature", "properties": { "RBD": 4831.0, "DEPENDENCI": "MUNICIPAL", "NOMBRE_RBD": "ESCUELA BASICA BELLAVISTA", "prom_lect4": 308.0, "prom_mate4": 270.0 }, "geometry": { "type": "Point", "coordinates": [ -72.95194244, -36.63693619 ] } },
{ "type": "Feature", "properties": { "RBD": 4832.0, "DEPENDENCI": "MUNICIPAL", "NOMBRE_RBD": "ESCUELA BASICA IGNACIO SERRANO MONTANER", "prom_lect4": 276.0, "prom_mate4": 239.0 }, "geometry": { "type": "Point", "coordinates": [ -72.95890045, -36.61006927 ] } },
{ "type": "Feature", "properties": { "RBD": 4834.0, "DEPENDENCI": "MUNICIPAL", "NOMBRE_RBD": "ESCUELA BASICA DICHATO", "prom_lect4": 261.0, "prom_mate4": 249.0 }, "geometry": { "type": "Point", "coordinates": [ -72.93545532, -36.54820633 ] } },
{ "type": "Feature", "properties": { "RBD": 4835.0, "DEPENDENCI": "MUNICIPAL", "NOMBRE_RBD": "ESCUELA BASICA ARTURO PRAT", "prom_lect4": 297.0, "prom_mate4": 281.0 }, "geometry": { "type": "Point", "coordinates": [ -72.96094513, -36.61583328 ] } },
{ "type": "Feature", "properties": { "RBD": 4836.0, "DEPENDENCI": "MUNICIPAL", "NOMBRE_RBD": "ESCUELA BASICA REPUBLICA DE PANAMA", "prom_lect4": 228.0, "prom_mate4": 213.0 }, "geometry": { "type": "Point", "coordinates": [ -72.95333099, -36.62612534 ] } },
{ "type": "Feature", "properties": { "RBD": 4837.0, "DEPENDENCI": "MUNICIPAL", "NOMBRE_RBD": "ESCUELA BASICA RAFAEL", "prom_lect4": 296.0, "prom_mate4": 281.0 }, "geometry": { "type": "Point", "coordinates": [ -72.79298401, -36.62891388 ] } },
{ "type": "Feature", "properties": { "RBD": 4838.0, "DEPENDENCI": "MUNICIPAL", "NOMBRE_RBD": "ESCUELA BASICA CARLOS MAHNS CHOUPAY", "prom_lect4": 319.0, "prom_mate4": 306.0 }, "geometry": { "type": "Point", "coordinates": [ -72.95136261, -36.61971283 ] } },
{ "type": "Feature", "properties": { "RBD": 4839.0, "DEPENDENCI": "MUNICIPAL", "NOMBRE_RBD": "ESCUELA BASICA COCHOLGUE", "prom_lect4": 245.0, "prom_mate4": 244.0 }, "geometry": { "type": "Point", "coordinates": [ -72.97528076, -36.59735107 ] } },
{ "type": "Feature", "properties": { "RBD": 4840.0, "DEPENDENCI": "MUNICIPAL", "NOMBRE_RBD": "ESCUELA BASICA Y ADULTOS CALIFORNIA", "prom_lect4": 272.0, "prom_mate4": 237.0 }, "geometry": { "type": "Point", "coordinates": [ -72.94612122, -36.62192917 ] } },
{ "type": "Feature", "properties": { "RBD": 4841.0, "DEPENDENCI": "MUNICIPAL", "NOMBRE_RBD": "ESCUELA BASICA CERRO ESTANQUE", "prom_lect4": 301.0, "prom_mate4": 284.0 }, "geometry": { "type": "Point", "coordinates": [ -72.94744873, -36.61146545 ] } },
{ "type": "Feature", "properties": { "RBD": 4842.0, "DEPENDENCI": "MUNICIPAL", "NOMBRE_RBD": "ESCUELA MARIANO EGANA", "prom_lect4": 285.0, "prom_mate4": 248.0 }, "geometry": { "type": "Point", "coordinates": [ -72.94945526, -36.60774231 ] } },
{ "type": "Feature", "properties": { "RBD": 4843.0, "DEPENDENCI": "MUNICIPAL", "NOMBRE_RBD": "ESCUELA BÁSICA LISA ENRIQUETA PETER TEUBNER", "prom_lect4": 286.0, "prom_mate4": 246.0 }, "geometry": { "type": "Point", "coordinates": [ -72.93959808, -36.61536407 ] } },
{ "type": "Feature", "properties": { "RBD": 4844.0, "DEPENDENCI": "MUNICIPAL", "NOMBRE_RBD": "ESCUELA BASICA MENQUE", "prom_lect4": 289.0, "prom_mate4": 270.0 }, "geometry": { "type": "Point", "coordinates": [ -72.86693573, -36.55350494 ] } },
{ "type": "Feature", "properties": { "RBD": 4845.0, "DEPENDENCI": "MUNICIPAL", "NOMBRE_RBD": "ESCUELA BASICA PUNTA DE PARRA", "prom_lect4": 269.0, "prom_mate4": 266.0 }, "geometry": { "type": "Point", "coordinates": [ -72.95858002, -36.67213058 ] } },
{ "type": "Feature", "properties": { "RBD": 4848.0, "DEPENDENCI": "MUNICIPAL", "NOMBRE_RBD": "ESCUELA BASICA SAN CARLITOS", "prom_lect4": 298.0, "prom_mate4": 279.0 }, "geometry": { "type": "Point", "coordinates": [ -72.84799957, -36.63711929 ] } },
{ "type": "Feature", "properties": { "RBD": 4852.0, "DEPENDENCI": "MUNICIPAL", "NOMBRE_RBD": "ESCUELA BASICA CALETA DEL MEDIO", "prom_lect4": 309.0, "prom_mate4": 278.0 }, "geometry": { "type": "Point", "coordinates": [ -72.95957184, -36.53820801 ] } },
{ "type": "Feature", "properties": { "RBD": 4855.0, "DEPENDENCI": "MUNICIPAL", "NOMBRE_RBD": "ESCUELA BASICA MILLAHUE", "prom_lect4": 315.0, "prom_mate4": 271.0 }, "geometry": { "type": "Point", "coordinates": [ -72.78089905, -36.70532608 ] } },
{ "type": "Feature", "properties": { "RBD": 4860.0, "DEPENDENCI": "MUNICIPAL", "NOMBRE_RBD": "ESCUELA BASICA VEGAS DE COLIUMO", "prom_lect4": 283.0, "prom_mate4": 233.0 }, "geometry": { "type": "Point", "coordinates": [ -72.95907593, -36.5562973 ] } },
{ "type": "Feature", "properties": { "RBD": 4861.0, "DEPENDENCI": "MUNICIPAL", "NOMBRE_RBD": "ESCUELA BASICA SAN ANTONIO", "prom_lect4": null, "prom_mate4": null }, "geometry": { "type": "Point", "coordinates": [ -72.85897064, -36.71009064 ] } },
{ "type": "Feature", "properties": { "RBD": 4865.0, "DEPENDENCI": "PARTICULAR SUBVENCIONADO", "NOMBRE_RBD": "ESCUELA PARTICULAR MARGARITA NASEAU", "prom_lect4": 317.0, "prom_mate4": 294.0 }, "geometry": { "type": "Point", "coordinates": [ -72.96132054, -36.61709755 ] } },
{ "type": "Feature", "properties": { "RBD": 4866.0, "DEPENDENCI": "PARTICULAR SUBVENCIONADO", "NOMBRE_RBD": "COLEGIO DOCTOR GUILLERMO VELASCO BARROS", "prom_lect4": 289.0, "prom_mate4": 276.0 }, "geometry": { "type": "Point", "coordinates": [ -72.96008125, -36.61710704 ] } },
{ "type": "Feature", "properties": { "RBD": 4867.0, "DEPENDENCI": "PARTICULAR SUBVENCIONADO", "NOMBRE_RBD": "ESCUELA BASICA RAFAEL AMPUERO VILLARROEL", "prom_lect4": 300.0, "prom_mate4": 272.0 }, "geometry": { "type": "Point", "coordinates": [ -72.794687, -36.6298326 ] } },
{ "type": "Feature", "properties": { "RBD": 4868.0, "DEPENDENCI": "PARTICULAR SUBVENCIONADO", "NOMBRE_RBD": "COLEGIO PADRE LUIS AMIGO", "prom_lect4": 276.0, "prom_mate4": 235.0 }, "geometry": { "type": "Point", "coordinates": [ -73.05997923, -36.79900712 ] } },
{ "type": "Feature", "properties": { "RBD": 4898.0, "DEPENDENCI": "MUNICIPAL", "NOMBRE_RBD": "ESCUELA MANUEL AMAT Y JUNIET", "prom_lect4": 261.0, "prom_mate4": 251.0 }, "geometry": { "type": "Point", "coordinates": [ -72.93719482, -36.97789383 ] } },
{ "type": "Feature", "properties": { "RBD": 4902.0, "DEPENDENCI": "MUNICIPAL", "NOMBRE_RBD": "ESCUELA CARLOS ALBERTO FERNÁNDEZ CASTILLO", "prom_lect4": 260.0, "prom_mate4": 265.0 }, "geometry": { "type": "Point", "coordinates": [ -72.90810394, -37.16241455 ] } },
{ "type": "Feature", "properties": { "RBD": 4904.0, "DEPENDENCI": "MUNICIPAL", "NOMBRE_RBD": "ESCUELA BASICA RANGUEL", "prom_lect4": 298.0, "prom_mate4": 268.0 }, "geometry": { "type": "Point", "coordinates": [ -72.87064362, -37.13043976 ] } },
{ "type": "Feature", "properties": { "RBD": 4906.0, "DEPENDENCI": "MUNICIPAL", "NOMBRE_RBD": "ESCUELA SAN JOSE LA PALMA", "prom_lect4": null, "prom_mate4": null }, "geometry": { "type": "Point", "coordinates": [ -72.84747314, -37.1454277 ] } },
{ "type": "Feature", "properties": { "RBD": 4908.0, "DEPENDENCI": "MUNICIPAL", "NOMBRE_RBD": "ESCUELA ALEJANDRO VARELA SANTA MARIA", "prom_lect4": 211.0, "prom_mate4": 185.0 }, "geometry": { "type": "Point", "coordinates": [ -72.95780182, -37.0567131 ] } },
{ "type": "Feature", "properties": { "RBD": 4909.0, "DEPENDENCI": "MUNICIPAL", "NOMBRE_RBD": "ESCUELA PROFESORA JUANA SALGADO PARRA DE UNIHUE", "prom_lect4": 244.0, "prom_mate4": 230.0 }, "geometry": { "type": "Point", "coordinates": [ -72.94321442, -37.11697006 ] } },
{ "type": "Feature", "properties": { "RBD": 4910.0, "DEPENDENCI": "MUNICIPAL", "NOMBRE_RBD": "ESCUELA GUILLERMO BARBERI MASSA", "prom_lect4": null, "prom_mate4": null }, "geometry": { "type": "Point", "coordinates": [ -72.83094025, -36.98508453 ] } },
{ "type": "Feature", "properties": { "RBD": 4913.0, "DEPENDENCI": "MUNICIPAL", "NOMBRE_RBD": "ESCUELA BARRANCAS JUNTAS", "prom_lect4": null, "prom_mate4": null }, "geometry": { "type": "Point", "coordinates": [ -72.85784912, -37.01787949 ] } },
{ "type": "Feature", "properties": { "RBD": 4915.0, "DEPENDENCI": "MUNICIPAL", "NOMBRE_RBD": "ESCUELA LA CALLE", "prom_lect4": 246.0, "prom_mate4": 156.0 }, "geometry": { "type": "Point", "coordinates": [ -72.88726807, -37.03509521 ] } },
{ "type": "Feature", "properties": { "RBD": 4917.0, "DEPENDENCI": "MUNICIPAL", "NOMBRE_RBD": "ESCUELA SANTA SUSANA DE PICHACO", "prom_lect4": null, "prom_mate4": null }, "geometry": { "type": "Point", "coordinates": [ -72.85661316, -36.91696548 ] } },
{ "type": "Feature", "properties": { "RBD": 4918.0, "DEPENDENCI": "MUNICIPAL", "NOMBRE_RBD": "ESCUELA AGUA CORTA", "prom_lect4": null, "prom_mate4": null }, "geometry": { "type": "Point", "coordinates": [ -72.90092468, -36.97743225 ] } },
{ "type": "Feature", "properties": { "RBD": 4920.0, "DEPENDENCI": "MUNICIPAL", "NOMBRE_RBD": "ESCUELA SAN NICANOR", "prom_lect4": 290.0, "prom_mate4": 254.0 }, "geometry": { "type": "Point", "coordinates": [ -72.84701538, -37.06985855 ] } },
{ "type": "Feature", "properties": { "RBD": 4922.0, "DEPENDENCI": "PARTICULAR SUBVENCIONADO", "NOMBRE_RBD": "ESCUELA ALONSO DE ERCILLA", "prom_lect4": 272.0, "prom_mate4": 245.0 }, "geometry": { "type": "Point", "coordinates": [ -72.9293242, -36.97127482 ] } },
{ "type": "Feature", "properties": { "RBD": 4952.0, "DEPENDENCI": "MUNICIPAL", "NOMBRE_RBD": "LICEO BALDOMERO LILLO FIGUEROA", "prom_lect4": 279.0, "prom_mate4": 235.0 }, "geometry": { "type": "Point", "coordinates": [ -73.15578461, -37.09208679000001 ] } },
{ "type": "Feature", "properties": { "RBD": 4953.0, "DEPENDENCI": "MUNICIPAL", "NOMBRE_RBD": "ESCUELA ISIDORA GOYENECHEA", "prom_lect4": 278.0, "prom_mate4": 253.0 }, "geometry": { "type": "Point", "coordinates": [ -73.1539917, -37.08456802 ] } },
{ "type": "Feature", "properties": { "RBD": 4954.0, "DEPENDENCI": "MUNICIPAL", "NOMBRE_RBD": "ESCUELA BASICA SANTA MARIA DE GUADALUPE", "prom_lect4": 265.0, "prom_mate4": 246.0 }, "geometry": { "type": "Point", "coordinates": [ -73.15561676, -37.09498215 ] } },
{ "type": "Feature", "properties": { "RBD": 4955.0, "DEPENDENCI": "MUNICIPAL", "NOMBRE_RBD": "ESCUELA BASICA KONRAD ADENAUER", "prom_lect4": 240.0, "prom_mate4": 244.0 }, "geometry": { "type": "Point", "coordinates": [ -73.15483856, -37.09096527 ] } },
{ "type": "Feature", "properties": { "RBD": 4956.0, "DEPENDENCI": "MUNICIPAL", "NOMBRE_RBD": "ESCUELA BASICA BELLO HORIZONTE", "prom_lect4": 227.0, "prom_mate4": 207.0 }, "geometry": { "type": "Point", "coordinates": [ -73.15267944, -37.0772438 ] } },
{ "type": "Feature", "properties": { "RBD": 4958.0, "DEPENDENCI": "MUNICIPAL", "NOMBRE_RBD": "ESCUELA BASICA THOMPSON MATTHEWS", "prom_lect4": 248.0, "prom_mate4": 237.0 }, "geometry": { "type": "Point", "coordinates": [ -73.16145325, -37.08480072 ] } },
{ "type": "Feature", "properties": { "RBD": 4960.0, "DEPENDENCI": "MUNICIPAL", "NOMBRE_RBD": "COLEGIO ANGEL DE PEREDO", "prom_lect4": 255.0, "prom_mate4": 256.0 }, "geometry": { "type": "Point", "coordinates": [ -73.15588379, -37.09107208 ] } },
{ "type": "Feature", "properties": { "RBD": 4961.0, "DEPENDENCI": "MUNICIPAL", "NOMBRE_RBD": "ESCUELA BASICA COLCURA", "prom_lect4": 247.0, "prom_mate4": 213.0 }, "geometry": { "type": "Point", "coordinates": [ -73.14573669, -37.1098175 ] } },
{ "type": "Feature", "properties": { "RBD": 4967.0, "DEPENDENCI": "MUNICIPAL", "NOMBRE_RBD": "ESCUELA BASICA CENTENARIO", "prom_lect4": 270.0, "prom_mate4": 245.0 }, "geometry": { "type": "Point", "coordinates": [ -73.16118622, -37.08088684 ] } },
{ "type": "Feature", "properties": { "RBD": 4968.0, "DEPENDENCI": "MUNICIPAL", "NOMBRE_RBD": "ESCUELA BÁSICA CARABINERO ISAÍAS GUEVARA", "prom_lect4": 225.0, "prom_mate4": 222.0 }, "geometry": { "type": "Point", "coordinates": [ -73.15796661, -37.09504318 ] } },
{ "type": "Feature", "properties": { "RBD": 4969.0, "DEPENDENCI": "PARTICULAR SUBVENCIONADO", "NOMBRE_RBD": "LICEO SANTA DORIS", "prom_lect4": 237.0, "prom_mate4": 220.0 }, "geometry": { "type": "Point", "coordinates": [ -73.16499346, -37.08251149 ] } },
{ "type": "Feature", "properties": { "RBD": 4970.0, "DEPENDENCI": "PARTICULAR SUBVENCIONADO", "NOMBRE_RBD": "ESCUELA PADRE FRANCISCO DE CROZE", "prom_lect4": 285.0, "prom_mate4": 242.0 }, "geometry": { "type": "Point", "coordinates": [ -73.15708609, -37.09436846 ] } },
{ "type": "Feature", "properties": { "RBD": 4973.0, "DEPENDENCI": "PARTICULAR SUBVENCIONADO", "NOMBRE_RBD": "INSTITUTO HUMANIDADES SAN FRANCISCO DE ASIS", "prom_lect4": 290.0, "prom_mate4": 277.0 }, "geometry": { "type": "Point", "coordinates": [ -73.15612936, -37.07892397 ] } },
{ "type": "Feature", "properties": { "RBD": 4974.0, "DEPENDENCI": "PARTICULAR SUBVENCIONADO", "NOMBRE_RBD": "ESCUELA PARTICULAR GETSEMANI", "prom_lect4": 264.0, "prom_mate4": 273.0 }, "geometry": { "type": "Point", "coordinates": [ -73.15173975, -37.08189381 ] } },
{ "type": "Feature", "properties": { "RBD": 4984.0, "DEPENDENCI": "MUNICIPAL", "NOMBRE_RBD": "ESCUELA ROSITA RENARD", "prom_lect4": 274.0, "prom_mate4": 265.0 }, "geometry": { "type": "Point", "coordinates": [ -73.16558075, -37.00228119 ] } },
{ "type": "Feature", "properties": { "RBD": 4985.0, "DEPENDENCI": "MUNICIPAL", "NOMBRE_RBD": "ESCUELA BASICA PLAYAS NEGRAS", "prom_lect4": 268.0, "prom_mate4": 255.0 }, "geometry": { "type": "Point", "coordinates": [ -73.1444931, -37.03610229 ] } },
{ "type": "Feature", "properties": { "RBD": 4986.0, "DEPENDENCI": "MUNICIPAL", "NOMBRE_RBD": "ESCUELA ROSA MEDEL AGUILERA", "prom_lect4": 244.0, "prom_mate4": 227.0 }, "geometry": { "type": "Point", "coordinates": [ -73.16186523, -37.02208328 ] } },
{ "type": "Feature", "properties": { "RBD": 4987.0, "DEPENDENCI": "MUNICIPAL", "NOMBRE_RBD": "ESCUELA BASICA JAVIERA CARRERA", "prom_lect4": 231.0, "prom_mate4": 228.0 }, "geometry": { "type": "Point", "coordinates": [ -73.15389252, -37.01508713 ] } },
{ "type": "Feature", "properties": { "RBD": 4988.0, "DEPENDENCI": "MUNICIPAL", "NOMBRE_RBD": "ESCUELA RAFAEL SOTOMAYOR BAEZA", "prom_lect4": 261.0, "prom_mate4": 234.0 }, "geometry": { "type": "Point", "coordinates": [ -73.14456177, -37.02893829 ] } },
{ "type": "Feature", "properties": { "RBD": 4989.0, "DEPENDENCI": "MUNICIPAL", "NOMBRE_RBD": "ESCUELA VICTOR DOMINGO SILVA", "prom_lect4": 253.0, "prom_mate4": 243.0 }, "geometry": { "type": "Point", "coordinates": [ -73.15357208, -37.01117706 ] } },
{ "type": "Feature", "properties": { "RBD": 4990.0, "DEPENDENCI": "MUNICIPAL", "NOMBRE_RBD": "ESCUELA AMBROSIO O´HIGGINS", "prom_lect4": 245.0, "prom_mate4": 253.0 }, "geometry": { "type": "Point", "coordinates": [ -73.15750885, -36.99631882 ] } },
{ "type": "Feature", "properties": { "RBD": 4991.0, "DEPENDENCI": "MUNICIPAL", "NOMBRE_RBD": "ESCUELA REPUBLICA DE FRANCIA", "prom_lect4": 251.0, "prom_mate4": 234.0 }, "geometry": { "type": "Point", "coordinates": [ -73.13891602, -37.0317421 ] } },
{ "type": "Feature", "properties": { "RBD": 4992.0, "DEPENDENCI": "MUNICIPAL", "NOMBRE_RBD": "ESCUELA REMIGIO CASTRO ABURTO", "prom_lect4": 246.0, "prom_mate4": 228.0 }, "geometry": { "type": "Point", "coordinates": [ -73.14533234, -37.03011703 ] } },
{ "type": "Feature", "properties": { "RBD": 4994.0, "DEPENDENCI": "MUNICIPAL", "NOMBRE_RBD": "ESCUELA ADELAIDA MIGUIELES SOTO", "prom_lect4": 275.0, "prom_mate4": 252.0 }, "geometry": { "type": "Point", "coordinates": [ -73.14496613, -37.03003311 ] } },
{ "type": "Feature", "properties": { "RBD": 4995.0, "DEPENDENCI": "MUNICIPAL", "NOMBRE_RBD": "ESCUELA OCTAVIO SALINAS CARIAGA", "prom_lect4": 218.0, "prom_mate4": 222.0 }, "geometry": { "type": "Point", "coordinates": [ -73.16165161, -37.00754929 ] } },
{ "type": "Feature", "properties": { "RBD": 4996.0, "DEPENDENCI": "MUNICIPAL", "NOMBRE_RBD": "ESCUELA VISTA HERMOSA", "prom_lect4": 250.0, "prom_mate4": 241.0 }, "geometry": { "type": "Point", "coordinates": [ -73.131744380000015, -37.02606201 ] } },
{ "type": "Feature", "properties": { "RBD": 4997.0, "DEPENDENCI": "MUNICIPAL", "NOMBRE_RBD": "ESCUELA JORGE ROJAS MIRANDA", "prom_lect4": 220.0, "prom_mate4": 213.0 }, "geometry": { "type": "Point", "coordinates": [ -73.14984131, -37.02229309 ] } },
{ "type": "Feature", "properties": { "RBD": 4998.0, "DEPENDENCI": "MUNICIPAL", "NOMBRE_RBD": "ESCUELA ROSA YANEZ RODRIGUEZ", "prom_lect4": 254.0, "prom_mate4": 248.0 }, "geometry": { "type": "Point", "coordinates": [ -73.17810059, -37.02429199 ] } },
{ "type": "Feature", "properties": { "RBD": 4999.0, "DEPENDENCI": "MUNICIPAL", "NOMBRE_RBD": "ESCUELA BASICA RAMON FREIRE SERRANO", "prom_lect4": 232.0, "prom_mate4": 221.0 }, "geometry": { "type": "Point", "coordinates": [ -73.15862274, -36.98518372 ] } },
{ "type": "Feature", "properties": { "RBD": 5001.0, "DEPENDENCI": "MUNICIPAL", "NOMBRE_RBD": "ESCUELA ARTURO HUGHES CERNA", "prom_lect4": 241.0, "prom_mate4": 225.0 }, "geometry": { "type": "Point", "coordinates": [ -73.15853119, -36.98222733 ] } },
{ "type": "Feature", "properties": { "RBD": 5002.0, "DEPENDENCI": "MUNICIPAL", "NOMBRE_RBD": "ESCUELA JUAN JOSE LATORRE BENAVENTE", "prom_lect4": 242.0, "prom_mate4": 245.0 }, "geometry": { "type": "Point", "coordinates": [ -73.52865601, -36.97568893 ] } },
{ "type": "Feature", "properties": { "RBD": 5003.0, "DEPENDENCI": "MUNICIPAL", "NOMBRE_RBD": "ESCUELA FRANCISCO COLOANE", "prom_lect4": 227.0, "prom_mate4": 216.0 }, "geometry": { "type": "Point", "coordinates": [ -73.513130190000012, -37.04541779 ] } },
{ "type": "Feature", "properties": { "RBD": 5005.0, "DEPENDENCI": "MUNICIPAL", "NOMBRE_RBD": "ESCUELA ESCUADRON", "prom_lect4": 284.0, "prom_mate4": 275.0 }, "geometry": { "type": "Point", "coordinates": [ -73.14855957, -36.95466614 ] } },
{ "type": "Feature", "properties": { "RBD": 5006.0, "DEPENDENCI": "MUNICIPAL", "NOMBRE_RBD": "ESCUELA BASICA PATAGUAL", "prom_lect4": null, "prom_mate4": null }, "geometry": { "type": "Point", "coordinates": [ -73.00270844, -37.01164246 ] } },
{ "type": "Feature", "properties": { "RBD": 5009.0, "DEPENDENCI": "PARTICULAR SUBVENCIONADO", "NOMBRE_RBD": "COLEGIO PARTICULAR GABRIELA MISTRAL", "prom_lect4": 299.0, "prom_mate4": 283.0 }, "geometry": { "type": "Point", "coordinates": [ -73.15334737, -37.01172389 ] } },
{ "type": "Feature", "properties": { "RBD": 5010.0, "DEPENDENCI": "PARTICULAR SUBVENCIONADO", "NOMBRE_RBD": "ESCUELA METODISTA", "prom_lect4": 278.0, "prom_mate4": 272.0 }, "geometry": { "type": "Point", "coordinates": [ -73.1644866, -37.00149814 ] } },
{ "type": "Feature", "properties": { "RBD": 5012.0, "DEPENDENCI": "PARTICULAR SUBVENCIONADO", "NOMBRE_RBD": "COLEGIO PARTICULAR SAN PEDRO", "prom_lect4": 261.0, "prom_mate4": 239.0 }, "geometry": { "type": "Point", "coordinates": [ -73.14113085, -37.02811134 ] } },
{ "type": "Feature", "properties": { "RBD": 5015.0, "DEPENDENCI": "PARTICULAR SUBVENCIONADO", "NOMBRE_RBD": "ESCUELA PARTICULAR SAN MARCOS", "prom_lect4": 262.0, "prom_mate4": 253.0 }, "geometry": { "type": "Point", "coordinates": [ -73.15584513, -36.98531299 ] } },
{ "type": "Feature", "properties": { "RBD": 5016.0, "DEPENDENCI": "PARTICULAR SUBVENCIONADO", "NOMBRE_RBD": "COLEGIO PARTICULAR IGNACIO CARRERA PINTO", "prom_lect4": 251.0, "prom_mate4": 246.0 }, "geometry": { "type": "Point", "coordinates": [ -73.15548561, -36.9822623 ] } },
{ "type": "Feature", "properties": { "RBD": 5019.0, "DEPENDENCI": "PARTICULAR SUBVENCIONADO", "NOMBRE_RBD": "ESCUELA GENARO RIOS CAMPOS", "prom_lect4": 265.0, "prom_mate4": 259.0 }, "geometry": { "type": "Point", "coordinates": [ -73.145427, -37.00582369 ] } },
{ "type": "Feature", "properties": { "RBD": 5020.0, "DEPENDENCI": "PARTICULAR SUBVENCIONADO", "NOMBRE_RBD": "COLEGIO ANIBAL ESQUIVEL TAPIA", "prom_lect4": 289.0, "prom_mate4": 298.0 }, "geometry": { "type": "Point", "coordinates": [ -73.14314107, -37.03058584 ] } },
{ "type": "Feature", "properties": { "RBD": 11394.0, "DEPENDENCI": "MUNICIPAL", "NOMBRE_RBD": "ESCUELA GABRIELA MISTRAL", "prom_lect4": 311.0, "prom_mate4": 259.0 }, "geometry": { "type": "Point", "coordinates": [ -72.95766272, -36.60213958 ] } },
{ "type": "Feature", "properties": { "RBD": 11397.0, "DEPENDENCI": "PARTICULAR SUBVENCIONADO", "NOMBRE_RBD": "COLEGIO ADVENTISTA", "prom_lect4": 248.0, "prom_mate4": 240.0 }, "geometry": { "type": "Point", "coordinates": [ -73.16159948, -37.09083782 ] } },
{ "type": "Feature", "properties": { "RBD": 11398.0, "DEPENDENCI": "MUNICIPAL", "NOMBRE_RBD": "ESCUELA MAULE", "prom_lect4": 274.0, "prom_mate4": 269.0 }, "geometry": { "type": "Point", "coordinates": [ -73.1862548, -37.00308434 ] } },
{ "type": "Feature", "properties": { "RBD": 11414.0, "DEPENDENCI": "PARTICULAR SUBVENCIONADO", "NOMBRE_RBD": "ESCUELA MIGUEL DE CERVANTES", "prom_lect4": 265.0, "prom_mate4": 258.0 }, "geometry": { "type": "Point", "coordinates": [ -73.03560439, -36.92689231 ] } },
{ "type": "Feature", "properties": { "RBD": 11415.0, "DEPENDENCI": "PARTICULAR PAGADO", "NOMBRE_RBD": "THE AUKLAND SCHOOL", "prom_lect4": 297.0, "prom_mate4": 250.0 }, "geometry": { "type": "Point", "coordinates": [ -73.03938, -36.823499 ] } },
{ "type": "Feature", "properties": { "RBD": 11420.0, "DEPENDENCI": "PARTICULAR SUBVENCIONADO", "NOMBRE_RBD": "COLEGIO METODISTA LAGUNILLAS", "prom_lect4": 278.0, "prom_mate4": 291.0 }, "geometry": { "type": "Point", "coordinates": [ -73.16763148, -36.99090616 ] } },
{ "type": "Feature", "properties": { "RBD": 11705.0, "DEPENDENCI": "PARTICULAR SUBVENCIONADO", "NOMBRE_RBD": "COLEGIO LOS EDUCADORES", "prom_lect4": 231.0, "prom_mate4": 230.0 }, "geometry": { "type": "Point", "coordinates": [ -73.14405573, -36.82728301 ] } },
{ "type": "Feature", "properties": { "RBD": 11706.0, "DEPENDENCI": "PARTICULAR SUBVENCIONADO", "NOMBRE_RBD": "LICEO PARTICULAR LOS ANDES", "prom_lect4": 218.0, "prom_mate4": 213.0 }, "geometry": { "type": "Point", "coordinates": [ -73.13758665, -36.83734234 ] } },
{ "type": "Feature", "properties": { "RBD": 11707.0, "DEPENDENCI": "PARTICULAR SUBVENCIONADO", "NOMBRE_RBD": "COLEGIO PARTICULAR NIÑO JESÚS", "prom_lect4": 281.0, "prom_mate4": 267.0 }, "geometry": { "type": "Point", "coordinates": [ -73.15706885, -37.09348186 ] } },
{ "type": "Feature", "properties": { "RBD": 11708.0, "DEPENDENCI": "PARTICULAR SUBVENCIONADO", "NOMBRE_RBD": "COLEGIO PARQUE CENTRAL", "prom_lect4": 270.0, "prom_mate4": 253.0 }, "geometry": { "type": "Point", "coordinates": [ -73.07954337, -36.79255648 ] } },
{ "type": "Feature", "properties": { "RBD": 11709.0, "DEPENDENCI": "PARTICULAR SUBVENCIONADO", "NOMBRE_RBD": "COLEGIO ALERCE", "prom_lect4": 253.0, "prom_mate4": 241.0 }, "geometry": { "type": "Point", "coordinates": [ -73.07082848, -36.82446678 ] } },
{ "type": "Feature", "properties": { "RBD": 11715.0, "DEPENDENCI": "PARTICULAR SUBVENCIONADO", "NOMBRE_RBD": "COLEGIO PARTICULAR ALBERTO BLEST GANA", "prom_lect4": 261.0, "prom_mate4": 258.0 }, "geometry": { "type": "Point", "coordinates": [ -73.13917131, -36.82998765 ] } },
{ "type": "Feature", "properties": { "RBD": 11741.0, "DEPENDENCI": "PARTICULAR SUBVENCIONADO", "NOMBRE_RBD": "ESCUELA PARTICULAR SAN ANDRÉS", "prom_lect4": 244.0, "prom_mate4": 230.0 }, "geometry": { "type": "Point", "coordinates": [ -72.99111629, -36.82148549 ] } },
{ "type": "Feature", "properties": { "RBD": 11743.0, "DEPENDENCI": "MUNICIPAL", "NOMBRE_RBD": "COLEGIO BASICO LOS LOBOS", "prom_lect4": 247.0, "prom_mate4": 234.0 }, "geometry": { "type": "Point", "coordinates": [ -73.14111221, -36.72060112 ] } },
{ "type": "Feature", "properties": { "RBD": 12008.0, "DEPENDENCI": "PARTICULAR SUBVENCIONADO", "NOMBRE_RBD": "ESCUELA PARTICULAR AMERICO VESPUCIO", "prom_lect4": 308.0, "prom_mate4": 277.0 }, "geometry": { "type": "Point", "coordinates": [ -73.16658197, -36.98538153 ] } },
{ "type": "Feature", "properties": { "RBD": 12023.0, "DEPENDENCI": "MUNICIPAL", "NOMBRE_RBD": "COLEGIO BASICO SAN VICENTE", "prom_lect4": 259.0, "prom_mate4": 264.0 }, "geometry": { "type": "Point", "coordinates": [ -73.12233924, -36.723942 ] } },
{ "type": "Feature", "properties": { "RBD": 12024.0, "DEPENDENCI": "PARTICULAR PAGADO", "NOMBRE_RBD": "THE WESSEX SCHOOL", "prom_lect4": 290.0, "prom_mate4": 267.0 }, "geometry": { "type": "Point", "coordinates": [ -73.01875, -36.78634 ] } },
{ "type": "Feature", "properties": { "RBD": 12025.0, "DEPENDENCI": "PARTICULAR PAGADO", "NOMBRE_RBD": "COLEGIO ITAHUE DE CHIGUAYANTE", "prom_lect4": 291.0, "prom_mate4": 294.0 }, "geometry": { "type": "Point", "coordinates": [ -73.03325, -36.876333 ] } },
{ "type": "Feature", "properties": { "RBD": 12036.0, "DEPENDENCI": "PARTICULAR PAGADO", "NOMBRE_RBD": "COLEGIO PINARES", "prom_lect4": 327.0, "prom_mate4": 324.0 }, "geometry": { "type": "Point", "coordinates": [ -73.03553, -36.8886 ] } },
{ "type": "Feature", "properties": { "RBD": 12058.0, "DEPENDENCI": "MUNICIPAL", "NOMBRE_RBD": "ESCUELA BASICA LOS LIBERTADORES", "prom_lect4": 250.0, "prom_mate4": 238.0 }, "geometry": { "type": "Point", "coordinates": [ -72.93270558, -36.96684969 ] } },
{ "type": "Feature", "properties": { "RBD": 12063.0, "DEPENDENCI": "PARTICULAR PAGADO", "NOMBRE_RBD": "THE THOMAS JEFFERSON SCHOOL", "prom_lect4": 320.0, "prom_mate4": 301.0 }, "geometry": { "type": "Point", "coordinates": [ -73.06083, -36.785557 ] } },
{ "type": "Feature", "properties": { "RBD": 16770.0, "DEPENDENCI": "PARTICULAR SUBVENCIONADO", "NOMBRE_RBD": "COLEGIO ALIWE COLLEGE", "prom_lect4": 272.0, "prom_mate4": 255.0 }, "geometry": { "type": "Point", "coordinates": [ -73.14663, -36.956444 ] } },
{ "type": "Feature", "properties": { "RBD": 17606.0, "DEPENDENCI": "PARTICULAR PAGADO", "NOMBRE_RBD": "COLEGIO CONCEPCION SAN PEDRO", "prom_lect4": 289.0, "prom_mate4": 288.0 }, "geometry": { "type": "Point", "coordinates": [ -73.10821, -36.843403 ] } },
{ "type": "Feature", "properties": { "RBD": 17607.0, "DEPENDENCI": "PARTICULAR SUBVENCIONADO", "NOMBRE_RBD": "COLEGIO INGLÉS BRITISH ROYAL SCHOOL", "prom_lect4": 280.0, "prom_mate4": 282.0 }, "geometry": { "type": "Point", "coordinates": [ -73.06218003, -36.79974972 ] } },
{ "type": "Feature", "properties": { "RBD": 17634.0, "DEPENDENCI": "PARTICULAR PAGADO", "NOMBRE_RBD": "COLEGIO DE LA SANTISIMA TRINIDAD", "prom_lect4": 304.0, "prom_mate4": 287.0 }, "geometry": { "type": "Point", "coordinates": [ -73.09815, -36.855115 ] } },
{ "type": "Feature", "properties": { "RBD": 17635.0, "DEPENDENCI": "PARTICULAR SUBVENCIONADO", "NOMBRE_RBD": "COL. TECNICO PROFESIONAL LOS ACACIOS", "prom_lect4": 288.0, "prom_mate4": 285.0 }, "geometry": { "type": "Point", "coordinates": [ -73.04504445, -36.81092433 ] } },
{ "type": "Feature", "properties": { "RBD": 17648.0, "DEPENDENCI": "PARTICULAR SUBVENCIONADO", "NOMBRE_RBD": "COLEGIO PARTICULAR KENNEDY SCHOOL", "prom_lect4": 275.0, "prom_mate4": 267.0 }, "geometry": { "type": "Point", "coordinates": [ -73.02464424, -36.93448695 ] } },
{ "type": "Feature", "properties": { "RBD": 17657.0, "DEPENDENCI": "PARTICULAR SUBVENCIONADO", "NOMBRE_RBD": "INSTITUTO DE HUMANIDADES ANTONIO MORENO CASAMITJANA", "prom_lect4": 280.0, "prom_mate4": 268.0 }, "geometry": { "type": "Point", "coordinates": [ -73.16753516, -36.98192323 ] } },
{ "type": "Feature", "properties": { "RBD": 17660.0, "DEPENDENCI": "PARTICULAR SUBVENCIONADO", "NOMBRE_RBD": "SCUOLA ITALIANA DI CONCEPCION", "prom_lect4": 302.0, "prom_mate4": 277.0 }, "geometry": { "type": "Point", "coordinates": [ -73.15232796, -36.94195936 ] } },
{ "type": "Feature", "properties": { "RBD": 17686.0, "DEPENDENCI": "PARTICULAR SUBVENCIONADO", "NOMBRE_RBD": "COLEGIO ADVENTISTA CONCEPCIÓN", "prom_lect4": 288.0, "prom_mate4": 259.0 }, "geometry": { "type": "Point", "coordinates": [ -73.05647211, -36.82559059 ] } },
{ "type": "Feature", "properties": { "RBD": 17689.0, "DEPENDENCI": "PARTICULAR SUBVENCIONADO", "NOMBRE_RBD": "COLEGIO LICANRAY", "prom_lect4": 285.0, "prom_mate4": 279.0 }, "geometry": { "type": "Point", "coordinates": [ -73.01047322, -36.94503595 ] } },
{ "type": "Feature", "properties": { "RBD": 17692.0, "DEPENDENCI": "PARTICULAR SUBVENCIONADO", "NOMBRE_RBD": "COLEGIO GOLDEN SCHOOL", "prom_lect4": 282.0, "prom_mate4": 270.0 }, "geometry": { "type": "Point", "coordinates": [ -73.02844401, -36.92158791 ] } },
{ "type": "Feature", "properties": { "RBD": 17693.0, "DEPENDENCI": "MUNICIPAL", "NOMBRE_RBD": "COLEGIO BASICO NUEVA LOS LOBOS", "prom_lect4": 258.0, "prom_mate4": 243.0 }, "geometry": { "type": "Point", "coordinates": [ -73.13793606, -36.71388597 ] } },
{ "type": "Feature", "properties": { "RBD": 17703.0, "DEPENDENCI": "PARTICULAR SUBVENCIONADO", "NOMBRE_RBD": "COLEGIO ESPIRITU SANTO", "prom_lect4": 285.0, "prom_mate4": 265.0 }, "geometry": { "type": "Point", "coordinates": [ -73.10329656, -36.74714069 ] } },
{ "type": "Feature", "properties": { "RBD": 17708.0, "DEPENDENCI": "PARTICULAR SUBVENCIONADO", "NOMBRE_RBD": "COLEGIO SAN CRISTOBAL", "prom_lect4": 282.0, "prom_mate4": 273.0 }, "geometry": { "type": "Point", "coordinates": [ -73.09551895, -36.74685815 ] } },
{ "type": "Feature", "properties": { "RBD": 17709.0, "DEPENDENCI": "MUNICIPAL", "NOMBRE_RBD": "ESCUELA BALMACEDA SAAVEDRA L.", "prom_lect4": 223.0, "prom_mate4": 249.0 }, "geometry": { "type": "Point", "coordinates": [ -73.01772732, -36.95560185 ] } },
{ "type": "Feature", "properties": { "RBD": 17711.0, "DEPENDENCI": "MUNICIPAL", "NOMBRE_RBD": "ESCUELA BASICA EL ESPINO", "prom_lect4": null, "prom_mate4": null }, "geometry": { "type": "Point", "coordinates": [ -72.86287796, -36.68136786 ] } },
{ "type": "Feature", "properties": { "RBD": 17733.0, "DEPENDENCI": "PARTICULAR SUBVENCIONADO", "NOMBRE_RBD": "COLEGIO CAMILO HENRIQUEZ", "prom_lect4": 251.0, "prom_mate4": 237.0 }, "geometry": { "type": "Point", "coordinates": [ -73.03867116, -36.81429364 ] } },
{ "type": "Feature", "properties": { "RBD": 17746.0, "DEPENDENCI": "PARTICULAR SUBVENCIONADO", "NOMBRE_RBD": "COLEGIO OLIMPIA GUZMAN BELLO", "prom_lect4": 254.0, "prom_mate4": 253.0 }, "geometry": { "type": "Point", "coordinates": [ -73.02227993, -36.93555574 ] } },
{ "type": "Feature", "properties": { "RBD": 17749.0, "DEPENDENCI": "PARTICULAR SUBVENCIONADO", "NOMBRE_RBD": "ESCUELA PUCARA", "prom_lect4": 248.0, "prom_mate4": 236.0 }, "geometry": { "type": "Point", "coordinates": [ -72.85713694, -36.81575188 ] } },
{ "type": "Feature", "properties": { "RBD": 17750.0, "DEPENDENCI": "PARTICULAR SUBVENCIONADO", "NOMBRE_RBD": "COLEGIO SALESIANO DE CONCEPCION", "prom_lect4": 297.0, "prom_mate4": 278.0 }, "geometry": { "type": "Point", "coordinates": [ -73.03440768, -36.81904928 ] } },
{ "type": "Feature", "properties": { "RBD": 17765.0, "DEPENDENCI": "PARTICULAR SUBVENCIONADO", "NOMBRE_RBD": "COLEGIO MADRE PAULINA", "prom_lect4": 258.0, "prom_mate4": 259.0 }, "geometry": { "type": "Point", "coordinates": [ -73.0103619, -36.93923669 ] } },
{ "type": "Feature", "properties": { "RBD": 17779.0, "DEPENDENCI": "PARTICULAR SUBVENCIONADO", "NOMBRE_RBD": "COLEGIO PACIFIC SCHOOL", "prom_lect4": 300.0, "prom_mate4": 298.0 }, "geometry": { "type": "Point", "coordinates": [ -73.02907453, -36.91151717 ] } },
{ "type": "Feature", "properties": { "RBD": 17782.0, "DEPENDENCI": "MUNICIPAL", "NOMBRE_RBD": "LICEO RIOS DE CHILE", "prom_lect4": 243.0, "prom_mate4": 226.0 }, "geometry": { "type": "Point", "coordinates": [ -72.97478989, -36.7088402 ] } },
{ "type": "Feature", "properties": { "RBD": 17785.0, "DEPENDENCI": "MUNICIPAL", "NOMBRE_RBD": "ESCUELA VILLA CENTINELA SUR", "prom_lect4": 268.0, "prom_mate4": 236.0 }, "geometry": { "type": "Point", "coordinates": [ -73.14079569, -36.71218807 ] } },
{ "type": "Feature", "properties": { "RBD": 17788.0, "DEPENDENCI": "PARTICULAR SUBVENCIONADO", "NOMBRE_RBD": "COLEGIO AMANECER", "prom_lect4": 273.0, "prom_mate4": 251.0 }, "geometry": { "type": "Point", "coordinates": [ -73.16229248, -36.99397215 ] } },
{ "type": "Feature", "properties": { "RBD": 17812.0, "DEPENDENCI": "PARTICULAR SUBVENCIONADO", "NOMBRE_RBD": "COLEGIO CONCEPCION CHIGUAYANTE", "prom_lect4": 299.0, "prom_mate4": 281.0 }, "geometry": { "type": "Point", "coordinates": [ -73.02814289, -36.90261371 ] } },
{ "type": "Feature", "properties": { "RBD": 17824.0, "DEPENDENCI": "PARTICULAR SUBVENCIONADO", "NOMBRE_RBD": "COLEGIO CLARO DE LUNA COLLEGE", "prom_lect4": 281.0, "prom_mate4": 278.0 }, "geometry": { "type": "Point", "coordinates": [ -73.11089088, -36.72233617 ] } },
{ "type": "Feature", "properties": { "RBD": 17833.0, "DEPENDENCI": "PARTICULAR SUBVENCIONADO", "NOMBRE_RBD": "COLEGIO ETCHEGOYEN TALCAHUANO", "prom_lect4": 279.0, "prom_mate4": 269.0 }, "geometry": { "type": "Point", "coordinates": [ -73.11227052, -36.71536606 ] } },
{ "type": "Feature", "properties": { "RBD": 17840.0, "DEPENDENCI": "PARTICULAR SUBVENCIONADO", "NOMBRE_RBD": "ESCUELA BASICA NAHUELBUTA", "prom_lect4": 232.0, "prom_mate4": 227.0 }, "geometry": { "type": "Point", "coordinates": [ -73.14449213, -36.82568664 ] } },
{ "type": "Feature", "properties": { "RBD": 17854.0, "DEPENDENCI": "PARTICULAR SUBVENCIONADO", "NOMBRE_RBD": "COLEGIO VILLA NONGUEN", "prom_lect4": 254.0, "prom_mate4": 237.0 }, "geometry": { "type": "Point", "coordinates": [ -73.00710148, -36.83103107 ] } },
{ "type": "Feature", "properties": { "RBD": 17855.0, "DEPENDENCI": "PARTICULAR SUBVENCIONADO", "NOMBRE_RBD": "COLEGIO INMACULADA CONCEPCION", "prom_lect4": 282.0, "prom_mate4": 266.0 }, "geometry": { "type": "Point", "coordinates": [ -73.04868197, -36.8280106 ] } },
{ "type": "Feature", "properties": { "RBD": 17858.0, "DEPENDENCI": "PARTICULAR SUBVENCIONADO", "NOMBRE_RBD": "COLEGIO MIXTO INMACULADA CONCEPCION", "prom_lect4": 292.0, "prom_mate4": 279.0 }, "geometry": { "type": "Point", "coordinates": [ -73.11381087, -36.71538654 ] } },
{ "type": "Feature", "properties": { "RBD": 17859.0, "DEPENDENCI": "PARTICULAR SUBVENCIONADO", "NOMBRE_RBD": "COLEGIO ALMONDALE", "prom_lect4": 308.0, "prom_mate4": 309.0 }, "geometry": { "type": "Point", "coordinates": [ -73.10307433, -36.83443288 ] } },
{ "type": "Feature", "properties": { "RBD": 17860.0, "DEPENDENCI": "PARTICULAR SUBVENCIONADO", "NOMBRE_RBD": "COLEGIO SAN LUIS", "prom_lect4": 263.0, "prom_mate4": 275.0 }, "geometry": { "type": "Point", "coordinates": [ -73.11185147, -36.72190135 ] } },
{ "type": "Feature", "properties": { "RBD": 17875.0, "DEPENDENCI": "PARTICULAR SUBVENCIONADO", "NOMBRE_RBD": "COLEGIO SAN JOAQUIN", "prom_lect4": 286.0, "prom_mate4": 277.0 }, "geometry": { "type": "Point", "coordinates": [ -73.00847054, -36.84427785 ] } },
{ "type": "Feature", "properties": { "RBD": 17876.0, "DEPENDENCI": "PARTICULAR SUBVENCIONADO", "NOMBRE_RBD": "AMERICAN JUNIOR COLLEGE", "prom_lect4": 270.0, "prom_mate4": 258.0 }, "geometry": { "type": "Point", "coordinates": [ -73.16504105, -36.97912116 ] } },
{ "type": "Feature", "properties": { "RBD": 17900.0, "DEPENDENCI": "PARTICULAR SUBVENCIONADO", "NOMBRE_RBD": "COLEGIO METODISTA CONCEPCION", "prom_lect4": 302.0, "prom_mate4": 271.0 }, "geometry": { "type": "Point", "coordinates": [ -73.05019584, -36.82306023 ] } },
{ "type": "Feature", "properties": { "RBD": 17912.0, "DEPENDENCI": "PARTICULAR SUBVENCIONADO", "NOMBRE_RBD": "COLEGIO CREACIÓN CONCEPCIÓN", "prom_lect4": 293.0, "prom_mate4": 279.0 }, "geometry": { "type": "Point", "coordinates": [ -73.01930679, -36.82171582 ] } },
{ "type": "Feature", "properties": { "RBD": 17915.0, "DEPENDENCI": "PARTICULAR SUBVENCIONADO", "NOMBRE_RBD": "COLEGIO POLIVALENTE DOMINGO PARRA CORVALAN", "prom_lect4": 250.0, "prom_mate4": 227.0 }, "geometry": { "type": "Point", "coordinates": [ -73.15260038, -36.98701096 ] } },
{ "type": "Feature", "properties": { "RBD": 18007.0, "DEPENDENCI": "PARTICULAR PAGADO", "NOMBRE_RBD": "COLEGIO CARMELA ROMERO DE ESPINOSA", "prom_lect4": 299.0, "prom_mate4": 289.0 }, "geometry": { "type": "Point", "coordinates": [ -73.05739906, -36.82831754 ] } },
{ "type": "Feature", "properties": { "RBD": 18014.0, "DEPENDENCI": "MUNICIPAL", "NOMBRE_RBD": "ESCUELA BASICA LOS CONQUISTADORES", "prom_lect4": 277.0, "prom_mate4": 275.0 }, "geometry": { "type": "Point", "coordinates": [ -72.99386724, -36.73591084 ] } },
{ "type": "Feature", "properties": { "RBD": 18015.0, "DEPENDENCI": "MUNICIPAL", "NOMBRE_RBD": "ESCUELA BASICA FORJADORES DE CHILE", "prom_lect4": 252.0, "prom_mate4": 257.0 }, "geometry": { "type": "Point", "coordinates": [ -73.0044757, -36.74267073 ] } },
{ "type": "Feature", "properties": { "RBD": 18042.0, "DEPENDENCI": "PARTICULAR SUBVENCIONADO", "NOMBRE_RBD": "COLEGIO WENGA CORONEL", "prom_lect4": 261.0, "prom_mate4": 235.0 }, "geometry": { "type": "Point", "coordinates": [ -73.15434, -37.010376 ] } },
{ "type": "Feature", "properties": { "RBD": 18049.0, "DEPENDENCI": "PARTICULAR SUBVENCIONADO", "NOMBRE_RBD": "COLEGIO ADVENTISTA DE CONCEPCION", "prom_lect4": 291.0, "prom_mate4": 261.0 }, "geometry": { "type": "Point", "coordinates": [ -73.08489212, -36.75959812 ] } },
{ "type": "Feature", "properties": { "RBD": 18055.0, "DEPENDENCI": "PARTICULAR PAGADO", "NOMBRE_RBD": "COLEGIO MOZART SCHULE", "prom_lect4": 297.0, "prom_mate4": 283.0 }, "geometry": { "type": "Point", "coordinates": [ -73.03599, -36.833101 ] } },
{ "type": "Feature", "properties": { "RBD": 18065.0, "DEPENDENCI": "MUNICIPAL", "NOMBRE_RBD": "ESCUELA NUEVA REPUBLICA", "prom_lect4": 241.0, "prom_mate4": 246.0 }, "geometry": { "type": "Point", "coordinates": [ -72.92871434, -36.96678621 ] } },
{ "type": "Feature", "properties": { "RBD": 18069.0, "DEPENDENCI": "PARTICULAR SUBVENCIONADO", "NOMBRE_RBD": "CENTRO INTEGRAL DE EDUCACIÓN HIGH SCOPE LIMITADA", "prom_lect4": 295.0, "prom_mate4": 288.0 }, "geometry": { "type": "Point", "coordinates": [ -73.08526749, -36.79877593 ] } },
{ "type": "Feature", "properties": { "RBD": 18093.0, "DEPENDENCI": "PARTICULAR SUBVENCIONADO", "NOMBRE_RBD": "COLEGIO EL VALLE DE HUALQUI", "prom_lect4": 278.0, "prom_mate4": 265.0 }, "geometry": { "type": "Point", "coordinates": [ -72.92901218, -36.97207514 ] } },
{ "type": "Feature", "properties": { "RBD": 18094.0, "DEPENDENCI": "PARTICULAR SUBVENCIONADO", "NOMBRE_RBD": "CHRISTIAN COLLEGE", "prom_lect4": 252.0, "prom_mate4": 223.0 }, "geometry": { "type": "Point", "coordinates": [ -72.93415209, -36.97539558 ] } },
{ "type": "Feature", "properties": { "RBD": 18097.0, "DEPENDENCI": "PARTICULAR SUBVENCIONADO", "NOMBRE_RBD": "COLEGIO ALMONDALE LOMAS", "prom_lect4": 302.0, "prom_mate4": 301.0 }, "geometry": { "type": "Point", "coordinates": [ -73.06189738, -36.83362794 ] } },
{ "type": "Feature", "properties": { "RBD": 18102.0, "DEPENDENCI": "PARTICULAR SUBVENCIONADO", "NOMBRE_RBD": "COLEGIO PAULO FREIRE", "prom_lect4": 274.0, "prom_mate4": 262.0 }, "geometry": { "type": "Point", "coordinates": [ -73.09084992, -36.84159298 ] } },
{ "type": "Feature", "properties": { "RBD": 18111.0, "DEPENDENCI": "PARTICULAR SUBVENCIONADO", "NOMBRE_RBD": "COMPLEJO EDUCACIONAL GLORIA MENDEZ BRIONES", "prom_lect4": 262.0, "prom_mate4": 254.0 }, "geometry": { "type": "Point", "coordinates": [ -72.9986415, -36.74285123 ] } },
{ "type": "Feature", "properties": { "RBD": 18114.0, "DEPENDENCI": "PARTICULAR SUBVENCIONADO", "NOMBRE_RBD": "COLEGIO A-LAFKEN", "prom_lect4": 280.0, "prom_mate4": 281.0 }, "geometry": { "type": "Point", "coordinates": [ -72.99675597, -36.74311864 ] } },
{ "type": "Feature", "properties": { "RBD": 18126.0, "DEPENDENCI": "PARTICULAR SUBVENCIONADO", "NOMBRE_RBD": "COLEGIO PORVENIR SCHOOL", "prom_lect4": 284.0, "prom_mate4": 268.0 }, "geometry": { "type": "Point", "coordinates": [ -73.02228219, -36.95127742 ] } },
{ "type": "Feature", "properties": { "RBD": 18127.0, "DEPENDENCI": "PARTICULAR SUBVENCIONADO", "NOMBRE_RBD": "CENTRO EDUCACIONAL ALBORADA", "prom_lect4": 289.0, "prom_mate4": 276.0 }, "geometry": { "type": "Point", "coordinates": [ -72.99547027, -36.74438416 ] } },
{ "type": "Feature", "properties": { "RBD": 18147.0, "DEPENDENCI": "PARTICULAR SUBVENCIONADO", "NOMBRE_RBD": "COLEGIO EDUCA BIOBÍO", "prom_lect4": 258.0, "prom_mate4": 276.0 }, "geometry": { "type": "Point", "coordinates": [ -73.14365561, -36.85358331 ] } },
{ "type": "Feature", "properties": { "RBD": 18149.0, "DEPENDENCI": "PARTICULAR SUBVENCIONADO", "NOMBRE_RBD": "COLEGIO RUCALHUE", "prom_lect4": 261.0, "prom_mate4": 253.0 }, "geometry": { "type": "Point", "coordinates": [ -73.10099026, -36.79940829 ] } },
{ "type": "Feature", "properties": { "RBD": 18158.0, "DEPENDENCI": "PARTICULAR SUBVENCIONADO", "NOMBRE_RBD": "COLEGIO LICAN RAY", "prom_lect4": 220.0, "prom_mate4": 220.0 }, "geometry": { "type": "Point", "coordinates": [ -73.13849, -36.85415 ] } },
{ "type": "Feature", "properties": { "RBD": 18163.0, "DEPENDENCI": "PARTICULAR PAGADO", "NOMBRE_RBD": "COLEGIO PRESTON SCHOOL", "prom_lect4": 288.0, "prom_mate4": 278.0 }, "geometry": { "type": "Point", "coordinates": [ -73.10597832, -36.8009753 ] } },
{ "type": "Feature", "properties": { "RBD": 18172.0, "DEPENDENCI": "PARTICULAR SUBVENCIONADO", "NOMBRE_RBD": "COLEGIO AMANECER TALCAHUANO", "prom_lect4": 293.0, "prom_mate4": 258.0 }, "geometry": { "type": "Point", "coordinates": [ -73.08410788, -36.75182177 ] } },
{ "type": "Feature", "properties": { "RBD": 18181.0, "DEPENDENCI": "PARTICULAR SUBVENCIONADO", "NOMBRE_RBD": "INSTITUTO HUMANIDADES MONSEÑOR JOSE MANUEL SANTO ASCARZA", "prom_lect4": 276.0, "prom_mate4": 259.0 }, "geometry": { "type": "Point", "coordinates": [ -73.01817269, -36.94271865 ] } },
{ "type": "Feature", "properties": { "RBD": 18203.0, "DEPENDENCI": "PARTICULAR SUBVENCIONADO", "NOMBRE_RBD": "ESCUELA ESPECIAL DE LENGUAJE KIMALU", "prom_lect4": 266.0, "prom_mate4": 230.0 }, "geometry": { "type": "Point", "coordinates": [ -73.0217, -36.774708 ] } },
{ "type": "Feature", "properties": { "RBD": 18218.0, "DEPENDENCI": "MUNICIPAL", "NOMBRE_RBD": "COLEGIO NUEVOS HORIZONTES", "prom_lect4": 247.0, "prom_mate4": 240.0 }, "geometry": { "type": "Point", "coordinates": [ -73.146354, -36.849712 ] } },
{ "type": "Feature", "properties": { "RBD": 18223.0, "DEPENDENCI": "PARTICULAR SUBVENCIONADO", "NOMBRE_RBD": "COLEGIO EL FARO", "prom_lect4": 252.0, "prom_mate4": 232.0 }, "geometry": { "type": "Point", "coordinates": [ -73.066154, -36.82666 ] } },
{ "type": "Feature", "properties": { "RBD": 18237.0, "DEPENDENCI": "PARTICULAR SUBVENCIONADO", "NOMBRE_RBD": "COLEGIO AMANECER SAN CARLOS", "prom_lect4": 277.0, "prom_mate4": 264.0 }, "geometry": { "type": "Point", "coordinates": [ -73.14225, -36.86722 ] } },
{ "type": "Feature", "properties": { "RBD": 18247.0, "DEPENDENCI": "PARTICULAR SUBVENCIONADO", "NOMBRE_RBD": "COLEGIO SAN NICOLÁS", "prom_lect4": 281.0, "prom_mate4": 281.0 }, "geometry": { "type": "Point", "coordinates": [ -73.02658, -36.815147 ] } },
{ "type": "Feature", "properties": { "RBD": 31110.0, "DEPENDENCI": "PARTICULAR SUBVENCIONADO", "NOMBRE_RBD": "COLEGIO FRATERNIDAD", "prom_lect4": 281.0, "prom_mate4": 277.0 }, "geometry": { "type": "Point", "coordinates": [ -73.143425, -36.88218 ] } },
{ "type": "Feature", "properties": { "RBD": 31119.0, "DEPENDENCI": "PARTICULAR SUBVENCIONADO", "NOMBRE_RBD": "COLEGIO ALMONDALE VALLE", "prom_lect4": 299.0, "prom_mate4": 286.0 }, "geometry": { "type": "Point", "coordinates": [ -73.00564, -36.817142 ] } },
{ "type": "Feature", "properties": { "RBD": 31130.0, "DEPENDENCI": "PARTICULAR SUBVENCIONADO", "NOMBRE_RBD": "COLEGIO PARTICULAR SUBVENCIONADO TIMONEL-CORONEL", "prom_lect4": 270.0, "prom_mate4": 267.0 }, "geometry": { "type": "Point", "coordinates": [ -73.148601, -36.974017 ] } }
]
}
